Company Name,long,lat,Supermarket_within_5_miles,Location Employee Size Actual,Location Sales Volume Actual,Status,Year
Quick Out Food Store Inc,-74.470361,40.443503,11,2,458000.0,Open,2011
Coco Tree Inc,-74.6198448,41.0698928,1,2,497000.0,Open,2011
Oak Valley Farms Inc,-74.97657790000001,39.8469926,18,9,1994000.0,Open,2011
Genuardi's,-75.00316959999999,39.9206869,25,200,9339000.0,Open,2011
Greek Pride Food Svc,-74.053453,40.9945,15,4,1010000.0,Open,2011
Rosell CITGO,-74.02029240000002,41.000285299999994,15,2,2596000.0,Open,2011
Super Fresh,-75.062301,39.9005149,21,130,28789000.0,Open,2011
Super Fresh,-74.5941073,40.336799400000004,8,150,34336000.0,Open,2011
Super Fresh,-74.9157392,39.8928598,13,75,17718000.0,Open,2011
Arthur's Mini Market Inc,-74.2636087,40.516589200000006,12,1,229000.0,Open,2011
Genuardi's,-74.920455,39.8696008,13,7,1654000.0,Open,2011
George Pandel Grocery,-73.9858725,40.87011079999999,29,2,505000.0,Open,2011
J & A Food Market,-74.274487,40.6092034,25,2,481000.0,Open,2011
Hoser Farm,-75.1090991,40.6803889,3,1,235000.0,Open,2011
My Bones & Biscuits Mugsy Bns,-74.3522725,39.9441306,3,1,259000.0,Open,2011
Sonex Food Products,-74.05770270000001,40.6985357,21,6,9906000.0,Open,2011
Abel Mini Market,-74.1232734,40.8740012,29,2,416000.0,Open,2011
Market Safety Research,-74.388551,40.8661826,13,2,529000.0,Open,2011
Deutsch Enterprises,-74.66778640000001,40.2493675,13,5,1173000.0,Open,2011
Metropolitan Food Systems,-74.2103662,40.9506061,12,3,623000.0,Open,2011
Optimal Trip,-74.19002490000001,40.9760245,17,2,416000.0,Open,2011
Punto Fijo Deli & Grocery Inc,-74.17410059999999,40.912076,18,1,55000.0,Open,2011
First Stop East Orange,-74.2236415,40.7500114,15,2,486000.0,Open,2011
Himi Inc,-74.46050809999998,40.884052399999995,8,3,3777000.0,Open,2011
Super Fresh,-74.818179,39.090356799999995,2,85,34690000.0,Open,2011
Fifi's Fine Foods LLC,-74.4928816,40.6785537,10,3,793000.0,Open,2011
Oasis Deli & Grocery,-75.18916,39.422469899999996,2,4,190000.0,Open,2011
Oxxo Store,-75.47008840000001,39.7259256,3,1,272000.0,Open,2011
4 M,-74.123365,40.66141270000001,18,2,461000.0,Open,2011
LA Bonita Supermarket LLC,-74.2249748,40.7662192,16,2,486000.0,Open,2011
Shree Ganesh Foods,-74.1500305,40.7932105,26,1,243000.0,Open,2011
Joe & Veronique Nutrition Hlth,-74.241478,40.7247999,26,3,298000.0,Open,2011
Echelon Food Management Inc,-74.9444869,39.857130100000006,18,4,886000.0,Open,2011
Vineland Specialty Foods LLC,-75.1283595,39.8607503,23,8,16223000.0,Open,2011
7-Eleven,-74.47390240000001,40.357060499999996,2,60,13735000.0,Open,2011
7-Eleven,-74.22538399999999,40.4196466,12,5,1145000.0,Open,2011
7-Eleven,-75.08057480000001,38.341103100000005,4,2,817000.0,Open,2011
Mar Brothers,-74.0175036,40.783353999999996,59,2,461000.0,Open,2011
Fruish Goods,-74.85099340000001,40.9093916,4,2,529000.0,Open,2011
Mc Farlands Car Wash & Gas,-74.56612340000001,40.5690378,9,18,1877000.0,Open,2011
Blimpie Mini Mart,-74.624696,40.5681695,8,5,308000.0,Open,2011
Franklin Food Mart,-74.4825108,40.487300700000006,10,6,6787000.0,Open,2011
Oldbridge Food Mart LLC,-74.3050379,40.406343299999996,9,2,458000.0,Open,2011
E & E Mini Market,-74.08258559999999,40.715263799999995,32,4,922000.0,Open,2011
Herrera Mini Market,-74.78145490000001,40.235099299999995,6,3,704000.0,Open,2011
Marina's Food Store,-74.184962,40.785639,25,1,243000.0,Open,2011
A & P Food Store,-74.21169609999998,39.7685102,6,65,16803000.0,Open,2011
A & P Food Store,-74.11892490000001,40.65954970000001,18,150,34559000.0,Open,2011
A & P Food Store,-74.71614890000001,40.8418677,8,160,42264000.0,Open,2011
A & P Food Store,-74.2277792,40.9297608,12,2,416000.0,Open,2011
Food Basics,-75.1122734,39.7209819,8,2,318000.0,Open,2011
Pathmark,-74.1456515,40.8048677,26,170,41246000.0,Closed,2011
Pathmark,-74.56025799999999,39.40413,9,100,26441000.0,Open,2011
Pathmark,-74.3043504,40.3506089,11,150,34348000.0,Closed,2011
Pathmark,-73.98630870000001,40.851508100000004,40,175,44159000.0,Open,2011
Pathmark,-74.19796240000001,40.8550546,10,130,34340000.0,Closed,2011
Pathmark,-74.03074670000001,40.9092635,23,100,25234000.0,Closed,2011
Pathmark,-74.2273786,40.1417112,7,200,45798000.0,Open,2011
Pathmark,-74.1618454,40.757647999999996,20,150,34559000.0,Open,2011
Pathmark,-75.04209940000001,39.867472899999996,28,2,443000.0,Open,2011
Pathmark,-74.20903630000001,40.8842165,19,2,416000.0,Closed,2011
Pathmark,-74.3429845,40.7984992,12,125,30328000.0,Closed,2011
Pathmark,-74.27358620000001,39.7018998,6,150,38776000.0,Open,2011
Pathmark,-74.1098647,40.3986796,11,175,40073000.0,Open,2011
Pathmark,-75.0382979,39.4267878,4,140,33405000.0,Open,2011
Pathmark,-74.02450390000001,40.7983287,55,191,44005000.0,Open,2011
Pathmark,-70.08011929999999,43.8844048,11,150,34336000.0,Closed,2011
Pathmark,-74.4258157,40.82539310000001,15,118,31170000.0,Closed,2011
Pathmark,-75.1108439,39.8315635,17,165,26156000.0,Closed,2011
Super Fresh,-74.7838147,39.6475089,2,65,17187000.0,Closed,2011
C Hamm Inc,-74.7351513,39.7775775,0,7,1654000.0,Open,2011
Rass Group LLC,-74.0470559,40.7489983,49,3,692000.0,Open,2011
Quick Chek,-74.6499314,40.6806477,3,12,2750000.0,Closed,2011
Gainer Floral Svc,-74.427587,39.361939,3,1,83000.0,Open,2011
Avon Foods Inc,-74.7848615,40.1164081,8,7,1654000.0,Open,2011
Respond Inc,-75.0516689,39.9497315,28,7,153000.0,Open,2011
Sultan Foods Inc,-74.6447093,40.4912407,3,2,459000.0,Open,2011
Edwards Super Food Store,-74.28593690000001,40.351387200000005,8,2,458000.0,Open,2011
KNJ Mini Mart,-74.185251,40.7664804,17,2,486000.0,Open,2011
Sun Food Mart,-75.0204154,40.7461808,1,5,267000.0,Open,2011
Plainfield Farm Fresh,-74.3755855,40.6044362,17,6,1441000.0,Open,2011
Rvp Corp,-74.30253990000001,40.3864261,9,2,458000.0,Open,2011
M P Mini Market,-74.16030570000001,40.9306341,19,3,623000.0,Open,2011
"Rodriguez, Victor",-74.11689609999999,40.867516200000004,29,2,416000.0,Open,2011
Top Tomato,-74.3048948,40.24257070000001,10,3,687000.0,Open,2011
Blitzs Market,-74.824371,39.08050120000001,2,2,817000.0,Open,2011
Food Associates Co,-74.1478363,40.766459999999995,20,3,692000.0,Open,2011
Brazimex Mkt,-73.9934479,40.3094089,7,3,687000.0,Open,2011
Marketplace,-74.96770500000001,40.0315092,23,5,1182000.0,Open,2011
Mother Mary's Market,-74.0497031,40.1230375,10,3,687000.0,Open,2011
Patty's Grocery,-74.3709809,39.584225,2,2,518000.0,Open,2011
Premium Supply Co,-74.12094499999999,40.820138299999996,23,2,505000.0,Open,2011
Raplh's Raplh's,-74.0578727,40.145019,10,3,687000.0,Open,2011
"Ethan, Melissa",-74.0404087,40.7635983,55,2,461000.0,Open,2011
Camila's Deli Grocery,-74.0129515,40.7865131,59,2,461000.0,Open,2011
Clifton Food Mart,-74.1377048,40.882053799999994,29,2,416000.0,Open,2011
D & S Grocery,-74.24390809999998,40.7260278,26,2,486000.0,Open,2011
Fabyan Place Grocery LLC,-74.2174969,40.7206784,24,2,486000.0,Open,2011
Feliz Suriel Grocery,-74.22442099999999,40.7226505,26,2,486000.0,Open,2011
Floyd's,-74.1466055,39.9508198,8,6,317000.0,Open,2011
J M Supermarket,-74.1781483,40.7615651,17,2,486000.0,Open,2011
Jaloon Specialty Foods,-74.11938509999999,40.6618877,18,3,692000.0,Open,2011
Kas Supermarket,-74.1914718,40.747308200000006,17,2,486000.0,Open,2011
Leapy Grocery,-74.4070125,40.6252376,15,2,481000.0,Open,2011
Lion Inc,-73.9791613,40.8273149,56,10,14318000.0,Open,2011
Lombard Brothers Amoco,-74.2301986,40.8535054,18,3,3631000.0,Open,2011
Los Tres Garcias Grocery,-74.1159079,40.8620745,29,2,416000.0,Open,2011
M J Grocery,-74.1227343,40.666805700000005,18,2,461000.0,Open,2011
Nia's Grocery,-74.0400415,40.766441,55,1,231000.0,Open,2011
Quick Food LLC,-74.0406153,40.8735764,23,2,505000.0,Open,2011
Quick Stop,-74.10520759999999,40.687459499999996,18,1,231000.0,Open,2011
R J Super Market,-74.0297598,40.8779524,27,2,505000.0,Open,2011
Ruby Grocery,-74.2064375,40.710541,24,2,486000.0,Open,2011
Torres Grocery,-74.20355620000001,40.6648726,25,2,481000.0,Open,2011
Trebol Food Market,-74.1224938,40.86455529999999,29,2,416000.0,Open,2011
Aksharpati Corp,-74.0867614,40.8480945,34,1,253000.0,Open,2011
Jg Grocery,-74.46066280000001,40.490738799999995,10,2,459000.0,Open,2011
Roxy's Old Time Deli,-74.9947088,39.69179329999999,5,2,318000.0,Open,2011
Arias Minimarket & Deli,-74.15686540000002,40.9137485,20,2,416000.0,Open,2011
Crystal Lake Thriftway,-75.062301,39.9005149,21,60,13288000.0,Open,2011
Food Market LLC,-74.1477828,40.9053094,18,2,416000.0,Open,2011
Frederick's Supermarket,-74.2312073,40.7464714,22,2,486000.0,Open,2011
Gonzales Grocery,-74.14810390000001,40.923606899999996,21,2,416000.0,Open,2011
Ing Grocery,-74.16240429999999,40.772242999999996,17,2,486000.0,Open,2011
K2K Food Market Inc,-74.7371446,40.223616799999995,8,2,469000.0,Open,2011
Modern Bazaar,-74.04331009999999,40.8834347,23,2,505000.0,Open,2011
N K Convenience Shop,-74.17021340000001,40.752807000000004,17,2,486000.0,Open,2011
Newmarket Pharmaceuticals LLC,-74.6575402,40.3938419,7,3,688000.0,Open,2011
Twin City Group,-74.4289532,40.50512,19,2,458000.0,Open,2011
Village News,-74.1519063,40.8790846,29,1,208000.0,Open,2011
Center Deli,-74.21073309999998,40.0868805,10,10,528000.0,Open,2011
E & L Deli Grocery,-74.16328730000001,40.9181159,20,1,55000.0,Open,2011
Eugenio J De LA Cruz,-74.0326975,40.7819559,55,2,461000.0,Open,2011
Hofa Market LLC,-74.07595450000001,40.963104799999996,22,2,505000.0,Open,2011
J & M Deli & Grocery,-74.28017129999999,40.718906,22,1,241000.0,Open,2011
LA Doninicana III,-74.2250441,40.7757656,16,3,728000.0,Open,2011
Magic Convenience,-74.1309809,39.967075200000004,8,2,518000.0,Open,2011
Marsh Supermarkets Inc,-74.4667589,40.8056254,11,3,793000.0,Open,2011
Big Bear Natrl Foods Inc Of Nj,-74.7586857,40.245319200000004,6,3,704000.0,Open,2011
Family Delight Grocery Store,-74.4560661,40.4927768,20,2,458000.0,Open,2011
Food Specialties,-74.0323073,41.0395325,13,3,190000.0,Open,2011
L B's Variety,-74.2283645,40.7402797,22,2,486000.0,Open,2011
Main Street Euro-Amer Bistro,-74.6518455,40.364492799999994,7,34,2048000.0,Open,2011
Super Sale Inc,-74.0183987,40.785621899999995,59,2,461000.0,Open,2011
Carnita Mini Market,-74.44603659999999,40.6031061,16,2,481000.0,Open,2011
Gonzalez LLC,-74.15725529999999,40.7535573,20,3,692000.0,Open,2011
Gourmet Store,-74.11881159999999,40.9809193,14,2,505000.0,Open,2011
Just Groceries,-74.0803714,40.703433399999994,21,2,109000.0,Open,2011
Sunny's Cafe,-74.06373359999999,40.7304905,39,3,692000.0,Open,2011
31 Food & Fuel LLC,-74.8515127,40.5119584,4,4,4040000.0,Open,2011
El Pueblo Grocery,-74.27934259999999,40.51729,12,2,458000.0,Open,2011
All American Dell,-74.2137714,39.9412366,6,5,1293000.0,Open,2011
Convenience Store,-74.54825500000001,39.812939,0,2,473000.0,Open,2011
Pier House,-74.9015772,38.9349932,5,12,665000.0,Open,2011
Carolina Park Avenue Grocery,-74.163445,40.915079999999996,20,2,416000.0,Open,2011
B-R Convenience Store,-74.17346490000001,40.7520713,17,4,384000.0,Open,2011
Century Food Market Inc,-74.04268309999999,40.8935277,23,2,505000.0,Open,2011
Green Tomato,-74.03477159999998,40.766312400000004,55,1,55000.0,Open,2011
Idalis Food Market,-74.19482990000002,40.739244,15,2,486000.0,Open,2011
Main Street Dollar,-75.19312740000001,40.6862843,5,1,235000.0,Open,2011
Maple Shade US Gas,-74.9939099,39.942262799999995,29,2,1923000.0,Open,2011
Pinos Market Grill,-74.12776120000001,40.8609426,29,2,416000.0,Open,2011
R S Food Inc,-74.30151059999999,40.5559486,16,0,0.0,Open,2011
Carousel Cards Gifts & Candy,-74.23228490000001,40.7934026,11,2,271000.0,Open,2011
Centro Americano Grocery,-74.41102070000001,40.90686029999999,5,3,793000.0,Open,2011
Enj Corners,-74.24979959999999,40.637531,28,1,241000.0,Open,2011
Express Mart,-74.68914000000001,40.566309999999994,8,2,459000.0,Open,2011
Angels Wings Inc,-74.758189,40.205739799999996,8,30,7034000.0,Open,2011
Blvd Liquor,-74.15890259999999,40.9271854,19,3,1013000.0,Open,2011
Brothers Store,-74.20492519999999,40.6651893,25,2,481000.0,Open,2011
J & M Gourmet Foods,-74.4792369,40.8805342,13,3,793000.0,Open,2011
Los Compadres Grocery Store,-75.117652,39.9516023,28,4,886000.0,Open,2011
Nicholas Markets,-74.20446190000001,40.8891731,19,7,1453000.0,Open,2011
Wawa Food Market,-74.8511116,40.506512,4,19,4268000.0,Open,2011
Wawa Food Market,-74.27858979999999,39.9964665,3,25,6463000.0,Closed,2011
Castillo Brothers Grocery,-74.1683328,40.9057689,24,2,416000.0,Open,2011
Maria Grocery,-74.1621573,40.897715600000005,24,1,208000.0,Open,2011
Palisades Convenience Store,-74.02513359999999,40.87742670000001,27,1,253000.0,Open,2011
Philopater LLC,-74.03609420000001,40.772443,55,2,461000.0,Open,2011
Risk Management Consulting,-73.9815796,40.8873124,22,4,1010000.0,Open,2011
Turro Foods,-75.04493790000001,39.9271186,25,4,886000.0,Open,2011
A & S Grocery,-74.1869858,40.648270000000004,24,2,481000.0,Open,2011
Abrantes Food Market,-73.7115365,40.9810628,16,2,461000.0,Open,2011
Corrados Famiy Affair,-74.1450074,40.7879321,23,2,505000.0,Open,2011
Freedom Convenience-Smoke Shop,-74.06213709999999,40.7307104,39,2,461000.0,Open,2011
Golden Liquors,-74.0103882,40.7972739,55,3,1000000.0,Open,2011
D M G Foods Inc,-74.301692,40.1391106,6,3,776000.0,Open,2011
Mexico Lindo,-74.1322311,40.862939700000005,29,1,55000.0,Open,2011
One Stop Srv Cnt LLC,-74.166911,40.72573,19,2,486000.0,Open,2011
Rita's Grocery,-74.1697573,40.9220134,20,1,208000.0,Open,2011
Super Stop Supermarket,-74.2051842,40.0847403,10,2,518000.0,Open,2011
Tony Grocery Fish Market,-74.0034818,40.7963372,55,2,461000.0,Open,2011
Abreu Food Market,-74.2721032,40.502163,12,3,687000.0,Open,2011
African Food Market,-74.2143526,40.7294946,15,2,486000.0,Open,2011
All In One Stop,-74.01631,40.789280100000006,59,2,461000.0,Open,2011
All Spirit,-74.222902,40.737977799999996,26,2,486000.0,Open,2011
Arfa Enterprises Inc,-75.03003790000001,39.9942023,33,7,1654000.0,Open,2011
B & C Grocery,-74.2201222,40.745203000000004,22,2,486000.0,Open,2011
Baez Meat Market Grocery Inc,-74.266515,40.519784,12,2,458000.0,Open,2011
Biedronka,-74.114407,40.875055200000006,30,2,505000.0,Open,2011
Borinquen Plaza Supermarket,-74.1676012,40.7672191,17,2,486000.0,Open,2011
Brazilian Market LLC,-73.98858129999999,40.284332299999996,7,3,687000.0,Open,2011
Brian Mini Market,-74.2090298,40.7814174,18,2,486000.0,Open,2011
Convenience Retail Store,-74.167796,40.7241523,19,2,486000.0,Open,2011
Country Farm,-74.8469347,39.9815609,7,2,473000.0,Open,2011
D & S Grocery,-74.1865186,40.769398200000005,17,2,486000.0,Open,2011
Denisse Grocery,-74.13115379999999,40.8635107,29,2,416000.0,Open,2011
Dreamers Supermarket,-74.1743364,40.7512466,17,2,486000.0,Open,2011
E T Deli & Grocery,-74.17916590000002,40.7295821,17,1,243000.0,Open,2011
Family Grocery,-74.24294520000001,40.7207149,26,3,728000.0,Open,2011
Family Supermarkets,-74.2309322,40.7277333,26,2,486000.0,Open,2011
Fasul Market,-74.2311158,40.7501072,22,5,688000.0,Open,2011
Fermim Grocery,-74.1618009,40.921383299999995,20,1,208000.0,Open,2011
Food Market Hispano American,-74.1897061,40.7703273,25,3,728000.0,Open,2011
Fox Supermarket,-74.1894768,40.7322919,15,2,486000.0,Open,2011
Fuel Stop Inc,-74.0437668,40.761214700000004,55,2,3029000.0,Open,2011
Generation Next LT,-74.1521636,40.9256982,19,2,416000.0,Open,2011
Glenny's Grocery Inc,-74.225063,40.7530682,15,2,486000.0,Open,2011
Hailey's Mini Market,-74.2288932,40.7520963,15,3,728000.0,Open,2011
J & C II Inc,-74.211203,40.7335726,15,3,728000.0,Open,2011
J & J Grocery & Deli,-74.1270928,40.876898700000005,29,2,416000.0,Open,2011
J C Grocery,-74.0405033,40.754779799999994,55,1,231000.0,Open,2011
Jhan's Grocery & Deli,-74.5337177,40.2639138,4,3,704000.0,Open,2011
K Kim Farm Inc,-74.28593690000001,40.351387200000005,8,3,335000.0,Open,2011
Kanudo Inc,-74.2289147,40.853518799999996,18,2,486000.0,Open,2011
LA Esperanza Grocery Store,-74.03752800000001,40.756752,55,2,461000.0,Open,2011
LA Placita Mexicana,-74.45250990000001,40.4903628,20,2,458000.0,Open,2011
Lester M Entin Assoc,-74.50116120000001,40.422209,11,2,458000.0,Open,2011
M & B Supermarket M & B Sup,-74.15934240000001,40.91948729999999,20,2,416000.0,Open,2011
A D I Food Mart,-74.15524029999999,40.9522349,18,2,416000.0,Open,2011
Dino's On Main Market & Bistro,-74.0128671,40.216840600000005,9,3,687000.0,Open,2011
El Sitio Grocery,-74.0536346,40.73424179999999,39,3,692000.0,Open,2011
Giovani Grocery LLC,-74.1947317,40.6560354,24,2,481000.0,Open,2011
J & G Groceries,-74.4274417,40.61647120000001,17,2,481000.0,Open,2011
Millstone Mini Market & Deli,-74.4359753,40.261439200000005,0,2,458000.0,Open,2011
Mr Dipper,-74.1200848,40.885226200000005,30,2,505000.0,Open,2011
Peralta Food Market Corp,-74.2074542,40.70853029999999,24,2,486000.0,Open,2011
Quick Shop,-74.2960772,40.4611331,9,2,458000.0,Open,2011
Red Sea King Inc,-74.1259458,40.6551911,18,2,461000.0,Open,2011
South Berwick Grocery,-75.1198871,39.9230547,29,2,713000.0,Open,2011
T & J Minimarket Inc,-74.1832394,40.9189514,17,2,416000.0,Open,2011
99 Cents Dynasty,-74.019814,40.784968,59,2,327000.0,Open,2011
Acer Restoration LLC,-74.1196374,40.872400899999995,29,2,416000.0,Open,2011
AMOR Mini Market,-74.1342955,40.859375899999996,29,2,416000.0,Open,2011
Bon Appetit,-74.6516859,40.363970200000004,7,3,687000.0,Open,2011
Cibao Grocery Market,-74.1246612,40.872356599999996,29,2,416000.0,Open,2011
D & R Minimart,-74.2377176,40.73461210000001,22,2,486000.0,Open,2011
D & R Sons Inc,-74.22905229999999,40.7530461,15,2,486000.0,Open,2011
E & R Grocery Store,-74.2202712,40.703421899999995,27,2,481000.0,Open,2011
Eddy's Supermarket,-74.2135991,40.723341,20,2,486000.0,Open,2011
El Colmadon Grocery & Deli,-74.138836,40.868415999999996,29,2,416000.0,Open,2011
El Mojadito Mini Market,-74.3808772,40.4509104,12,2,458000.0,Open,2011
Empire Grocery & Deli,-74.15633299999999,40.933406,19,2,416000.0,Open,2011
F & L Grocery,-74.1224239,40.8722616,29,2,416000.0,Open,2011
G & J Food Market,-74.2034875,40.758883399999995,18,2,486000.0,Open,2011
Gaby Grocery,-74.1711308,40.9251081,18,2,416000.0,Open,2011
Garcia Grocery,-74.1833377,40.7270901,17,2,486000.0,Open,2011
Garfield Mini Mart,-74.10707729999999,40.8660948,30,2,505000.0,Open,2011
Governors Deli & Grocery,-74.16382409999999,40.9221676,20,4,831000.0,Open,2011
Indian Grocery Outlet Inc,-74.39631609999999,40.5363782,22,2,458000.0,Open,2011
Janrock Mini Mart,-74.1721054,40.919382500000005,20,2,416000.0,Open,2011
Julio's Grocery,-74.1557645,40.9147491,20,2,416000.0,Open,2011
Kenny's Corner,-74.44717840000001,40.4971832,20,2,458000.0,Open,2011
LA Guajira Grocery,-74.039034,40.7553054,55,2,461000.0,Open,2011
LA Unica Grocery Store LLC,-74.8190244,38.9858625,7,2,817000.0,Open,2011
Lili's Grocery,-74.1497094,40.9242561,21,2,416000.0,Open,2011
LNE Discounted Groceries,-74.1552322,40.9345401,19,2,416000.0,Open,2011
Lucky 3 LLC,-74.2455815,40.8868968,19,2,416000.0,Open,2011
Lyons Grocery,-74.16155570000001,40.928836499999996,19,2,416000.0,Open,2011
A D O M B B Y Food,-74.1912988,40.714509,22,3,728000.0,Open,2011
Este Grocery,-74.1223214,40.8663627,29,2,416000.0,Open,2011
Eujenia's Grocery,-74.0360483,40.7625184,55,2,461000.0,Open,2011
G L F Enterprises,-74.0722832,41.045766,13,2,505000.0,Open,2011
Guru Govino Grocery,-74.029838,40.768803999999996,55,2,461000.0,Open,2011
Luisanna Mini Market,-74.095893,40.690013,21,3,692000.0,Open,2011
New York,-75.1025595,39.9322679,31,2,443000.0,Open,2011
Nira's Quick Shop,-74.1340662,40.9342985,20,1,253000.0,Open,2011
Quik Mart,-83.1439616,42.4909998,8,2,529000.0,Open,2011
Vizcaya Grocery LLC,-74.2079054,40.725805,20,2,486000.0,Open,2011
Convenience America,-74.4659118,41.0563479,1,2,416000.0,Open,2011
5 Brothers Supermarket,-74.0464281,40.7550352,49,4,922000.0,Open,2011
5th Street Deli Grocery,-74.19214090000001,40.657432799999995,24,2,481000.0,Open,2011
Almonte Food Market,-75.0830385,39.9488451,29,2,443000.0,Open,2011
B & E Deli & Grocery,-74.18445140000001,40.9220444,18,1,55000.0,Open,2011
Bras LA USA Transfer,-73.985398,40.30505,7,2,217000.0,Open,2011
Dave's Sweet Shop,-74.3176405,40.704593200000005,22,2,481000.0,Open,2011
Eco Food Store,-74.03262,40.7609323,55,1,231000.0,Open,2011
El Nuevo Ranchero,-75.03419050000001,39.4796604,8,4,190000.0,Open,2011
Jocelyn Grocery,-74.1171369,40.8660569,29,3,623000.0,Open,2011
LA Malinche,-74.27691659999999,40.260169700000006,10,2,458000.0,Open,2011
Mejia Grocery,-74.12417629999999,40.864086900000004,29,2,110000.0,Open,2011
Neha Megha LLC,-75.2106431,39.4249955,2,3,4203000.0,Open,2011
Prospect Park Grocery & Deli,-74.1742038,40.9348178,17,2,416000.0,Open,2011
PVA Corp,-74.01870749999999,40.7860062,59,2,461000.0,Open,2011
R J Grocery,-74.2146997,40.7234562,20,3,728000.0,Open,2011
Clarke's Sunset Market,-74.7674003,39.0464128,2,5,2041000.0,Open,2011
Elmwood Mart,-74.1268175,40.902977299999996,25,2,2596000.0,Open,2011
Americas Food Market,-74.17571740000001,40.9151623,18,4,831000.0,Open,2011
Bankoiva Bankoiva,-74.16068409999998,40.9264042,19,2,416000.0,Open,2011
Best Food Mart,-74.154526,40.8963964,24,4,219000.0,Open,2011
Brennan Fuel,-74.3697324,39.5820933,2,3,2834000.0,Open,2011
King Fung Food Market,-74.0347157,40.929303000000004,21,15,3786000.0,Open,2011
Little Mina De Oro Inc,-74.0789439,40.709847499999995,17,2,486000.0,Open,2011
Montes Food Market Corp,-74.196889,40.736090600000004,15,7,1699000.0,Open,2011
Trustees Of Princeton Univ,-74.66069279999999,40.344643,7,3,704000.0,Open,2011
Circle A Convenience Store,-74.2908976,41.0026559,9,1,208000.0,Open,2011
Elizabeth Grocery,-75.1019372,39.9278336,29,2,443000.0,Open,2011
Family Grocery Store LLC,-74.2290752,40.7868555,11,2,486000.0,Open,2011
Jalaram Krupa LLC,-74.30014150000001,39.6433851,5,2,518000.0,Open,2011
B & H Food Store,-74.1620258,40.78904779999999,26,1,243000.0,Open,2011
Cibao Groceries,-74.4575698,40.490947799999994,20,2,458000.0,Open,2011
El Gran Poderde Dios Deli-Groc,-74.1170078,40.8683958,29,2,416000.0,Open,2011
Eliany Grocery Store LLC,-74.186725,40.7200834,22,2,486000.0,Open,2011
G L Food Mart,-74.118261,40.920737,25,2,505000.0,Open,2011
Harry's Grocery Deli,-74.0442872,40.8949337,23,2,505000.0,Open,2011
International Food Market,-74.43092270000001,40.498637200000005,19,2,458000.0,Open,2011
Junior Grocery,-74.0318349,40.7683323,55,2,461000.0,Open,2011
Kratu LLC,-74.113295,40.888273299999994,30,2,505000.0,Open,2011
LA Plaza Inc,-74.22280529999999,40.7378755,26,2,486000.0,Open,2011
M J Minimarket,-74.15633299999999,40.933406,19,4,831000.0,Open,2011
One Stop Mini Mart,-74.75664609999998,40.2496703,6,1,235000.0,Open,2011
R B Foods,-74.4252581,40.50021470000001,19,2,458000.0,Open,2011
Ubany Supermarket,-74.006534,40.788072,59,2,461000.0,Open,2011
Ungers Food,-74.1132521,40.901270600000004,25,18,16747000.0,Open,2011
Varsha Convenience,-74.2195604,40.6552718,28,2,481000.0,Open,2011
Boro & Family Grocery & Deli,-74.2168758,40.733324100000004,26,2,486000.0,Open,2011
Convenience & Lottery,-74.8578845,40.0779649,5,2,473000.0,Open,2011
Eagle International,-74.0570006,40.861985700000005,31,2,505000.0,Open,2011
Eba Markets LLC,-74.258052,40.810120500000004,11,5,1214000.0,Open,2011
Kingston Food Ctr & Deli,-74.1412228,40.908623600000006,23,2,416000.0,Open,2011
Lyons Shell,-74.2308635,40.7205552,26,12,14524000.0,Open,2011
Rezzo Grocery & Deli,-74.1155311,40.6667981,18,2,461000.0,Open,2011
24 7 Convenience Store,-74.0867614,40.8480945,34,2,505000.0,Open,2011
24 Hour Convenience Store,-74.4418572,39.3547877,3,1,265000.0,Open,2011
99 Cent El Giante,-74.1535437,40.9182837,21,2,416000.0,Open,2011
A & M Convenience Store,-74.4308082,40.579868700000006,24,1,229000.0,Open,2011
A M Quick Stop,-74.43905229999999,40.5776695,24,2,458000.0,Open,2011
Aladdin News Shop,-74.2146997,40.6624847,25,2,69000.0,Open,2011
Amarilis Grocery,-75.1043321,39.929030700000006,29,2,443000.0,Open,2011
Andrew Michael Corp,-74.2751059,40.128710299999995,6,8,7557000.0,Open,2011
Ascona Supermarket 2,-74.2029142,40.6925486,22,2,486000.0,Open,2011
Baker's Treat,-74.6455785,40.502739899999995,3,4,237000.0,Open,2011
Best Stop,-74.024963,40.889732,23,2,505000.0,Open,2011
Biser Shop Express LLC,-74.1122735,40.874774,30,1,253000.0,Open,2011
D Z Food Mart,-74.0614983,40.739729700000005,39,2,461000.0,Open,2011
E & K Groceries,-75.1139179,39.936982799999996,31,2,443000.0,Open,2011
Express Mart,-74.20046070000001,39.96667070000001,8,2,518000.0,Open,2011
Garden Grocery Store,-75.0926342,39.9443446,29,2,443000.0,Open,2011
Grocery Grocery,-74.16527109999998,40.91164570000001,20,2,416000.0,Open,2011
Hato Mayor Deli Grocery,-74.0458438,40.744604200000005,49,2,461000.0,Open,2011
Honest Convenience Store,-74.14184209999999,39.9514447,8,2,518000.0,Open,2011
Jojo's Jojo's,-74.2180472,40.6594708,28,2,481000.0,Open,2011
Kirsh Mart,-73.98509200000001,40.3221852,7,2,458000.0,Open,2011
KWIK Shop,-74.24344959999999,40.4054585,12,3,687000.0,Open,2011
Linden Gas,-74.2677252,40.633486700000006,28,2,481000.0,Open,2011
Lucky 7 Deli Market,-74.27858979999999,39.9964665,3,8,2069000.0,Open,2011
Lucky Mart,-74.10584990000001,40.8660471,30,2,505000.0,Open,2011
3 J's Specialty LLC,-74.6401576,40.5665413,9,5,308000.0,Open,2011
Chlo Grocery Store,-74.1618009,40.921383299999995,20,4,831000.0,Open,2011
Dre Deli & Grocery,-74.20940999999999,40.74385,15,4,238000.0,Open,2011
Fairlawn No 1 Foodmarket,-74.133525,40.9344237,20,2,505000.0,Open,2011
Food City,-73.95756540000001,40.8696881,28,10,2524000.0,Open,2011
Jo'h Metro,-74.07058520000001,40.9067363,24,20,5047000.0,Open,2011
Country Farm Grocery Store,-74.1080753,40.038855100000006,6,2,518000.0,Open,2011
Delight Big Bazar,-74.5062481,40.408403,8,2,458000.0,Open,2011
Ravi Food & News,-74.2210737,40.6718075,25,1,241000.0,Open,2011
ADPP Enterprises Inc,-74.0661795,40.81826029999999,29,5,1262000.0,Open,2011
Angel's Market,-74.80524969999999,39.635085700000005,2,2,529000.0,Open,2011
Benefit Nutrition,-74.1218438,40.9798369,14,2,505000.0,Open,2011
Caresoft Inc,-74.4058444,40.5330373,22,2,458000.0,Open,2011
Collings Convenience Store,-74.5037158,39.4917287,4,2,529000.0,Open,2011
Costa Deoro Grocery,-74.2231566,40.6696431,25,1,241000.0,Open,2011
Dressler's Auto Repair,-74.096852,40.414456,8,3,530000.0,Open,2011
El Mercadito,-75.0345556,39.487300899999994,8,3,716000.0,Open,2011
Isaiah Sib Corp,-74.0890558,40.7240564,32,2,461000.0,Open,2011
Kings Super Market,-74.04097420000001,41.0008528,14,2,505000.0,Open,2011
L J Mini Market LLC,-74.1601222,40.726787,19,1,243000.0,Open,2011
Lucero Star LLC,-74.09722559999999,40.6977768,21,3,163000.0,Open,2011
Chans Wok,-74.0868303,40.877217,25,5,1262000.0,Open,2011
Lupe's General Store,-74.5737662,40.723709299999996,3,3,575000.0,Open,2011
Real Kosher,-74.1409934,40.7286217,19,30,7279000.0,Open,2011
Salex Foods Corp,-74.20513829999999,40.864824299999995,19,3,623000.0,Open,2011
Buckalew's Restaurant & Tavern,-74.23952940000001,39.563801899999994,1,6,317000.0,Open,2011
Cameron's Scottish Foods,-74.1430578,40.0388503,6,2,518000.0,Open,2011
Country Farm,-74.0100439,40.224328799999995,9,2,458000.0,Open,2011
Elmandado Market,-74.9387168,39.524465299999996,2,2,529000.0,Open,2011
Kolos European Food Market,-74.2161212,40.1071382,10,2,518000.0,Open,2011
City Grocery & News Inc,-74.0553123,40.7490055,49,1,231000.0,Open,2011
Country Farm,-74.5668785,40.8258711,9,2,529000.0,Open,2011
Kenny's Convenience Store LLC,-74.0263748,40.9199686,20,2,505000.0,Open,2011
Margarita Deli Grocery,-74.0825004,40.7197732,32,2,461000.0,Open,2011
Medallion Gourmet Foods,-73.99672690000001,40.938781299999995,15,2,505000.0,Open,2011
Two Lucky Convenience Store,-74.2239052,40.6990489,27,2,481000.0,Open,2011
Wakiwaynes Wild & Wonderful,-74.11675749999999,40.0163513,8,3,776000.0,Open,2011
Alamane Muslim Merchants,-74.175511,40.735338399999996,17,1,243000.0,Open,2011
Chefsk's Polish Foods,-74.10520759999999,40.859174100000004,29,2,505000.0,Open,2011
Convenience Store,-74.2375349,40.6333244,28,4,961000.0,Open,2011
Despensa Estrella Market,-74.0386187,40.7585978,55,2,461000.0,Open,2011
Fresh Market At Arctic Foods,-74.96987370000001,40.7601386,1,49,11470000.0,Open,2011
Gisselle Grocery 2,-74.0774459,40.7083962,21,1,231000.0,Open,2011
Joe's Market,-74.2265303,40.7712308,16,4,659000.0,Open,2011
Korean Foods & Warehouse,-74.02370040000001,40.8483149,29,2,239000.0,Open,2011
Bayonne Family Grocery,-74.12834659999999,40.6564136,18,1,231000.0,Open,2011
Bull Boi Meat Supermarket,-73.9852297,40.31419520000001,7,3,687000.0,Open,2011
Ey Global Svc LTD,-74.3783968,40.7291326,17,3,721000.0,Open,2011
Hillside Variety & Grocery,-74.2242491,40.7053595,27,2,481000.0,Open,2011
Los Primos Grocery,-74.1317838,40.864948299999995,29,1,208000.0,Open,2011
Malvri Grocery Store,-74.116357,40.8637119,29,2,416000.0,Open,2011
Nj Mini Market,-74.24861899999999,40.7159117,26,2,486000.0,Open,2011
Palisades Mini Mart,-74.10975,40.8727618,30,2,505000.0,Open,2011
Ray's Auto Repair,-74.1423194,40.9140291,23,1,121000.0,Open,2011
State Maps,-74.26186899999999,39.775031299999995,6,5,4807000.0,Open,2011
Buca's Munchie Spot,-74.1571507,40.9068088,18,1,208000.0,Open,2011
County Farm,-74.4076997,40.9006777,5,2,529000.0,Open,2011
Crossroads Food Store,-74.1987225,40.7951903,25,4,238000.0,Open,2011
Deli & Mini-Mart,-75.12984190000002,39.86654620000001,23,1,159000.0,Open,2011
Downtown Food Market,-75.1196231,39.9307605,31,3,665000.0,Open,2011
First Food Stop,-74.64873490000001,40.4992448,3,2,459000.0,Open,2011
Garden Supermarkets,-74.12820009999999,40.86133770000001,29,5,1038000.0,Open,2011
L M Dollar Plus Grocery,-74.20120190000002,40.676542,25,2,481000.0,Open,2011
LA Joya Mini Market,-74.1258541,40.8479739,29,2,416000.0,Open,2011
Las Americas Grocery,-74.01143259999999,40.786322600000005,59,2,461000.0,Open,2011
Latino Mini Market,-74.53800340000001,40.5616139,8,2,459000.0,Open,2011
Lifeforce Healthfoods,-74.2459968,40.724157399999996,26,1,100000.0,Open,2011
Lil Express Grocery LLC,-74.13218520000001,40.8613531,29,2,416000.0,Open,2011
Los Amigos Fine Fare Sprmrkt,-74.42591469999999,40.6197765,17,20,4583000.0,Open,2011
Creemee Freeze,-74.42629659999999,40.261830700000004,0,10,2290000.0,Open,2011
Speed Gas,-74.9850537,39.6988157,5,4,3952000.0,Open,2011
Al-Aqsa Trading Co Inc,-74.1461582,40.882242100000006,29,3,623000.0,Open,2011
B & C Grocery Store,-74.1352671,40.8623471,29,2,416000.0,Open,2011
Gurunanak Food LLC,-74.24235829999999,40.592891200000004,18,2,458000.0,Open,2011
Inserra Super Markets,-74.1195686,40.8119607,23,2,505000.0,Open,2011
Jeffrey Minimarket,-74.1323687,40.8678534,29,2,416000.0,Open,2011
Jennys Grocery,-74.08412709999999,40.7177718,32,1,231000.0,Open,2011
Linka Convenient Store,-74.0022166,40.7972724,55,1,231000.0,Open,2011
Lion Grocery LLC,-74.035653,40.7674278,55,2,461000.0,Open,2011
Baba Food Market,-74.9627512,39.7133455,11,1,222000.0,Open,2011
Bodega LA Chiquita,-74.1836487,40.7228216,22,1,243000.0,Open,2011
Crystal Supermarket,-74.5290603,40.561632,8,2,459000.0,Open,2011
Dutch Hill Convenience Store,-74.1431615,40.8684636,29,1,208000.0,Open,2011
Emily Grocery,-74.1222296,40.8749043,29,2,416000.0,Open,2011
Krauser's Food Store,-74.0311827,40.99482020000001,15,3,564000.0,Open,2011
M V Grocery,-74.23236,40.7432749,22,2,486000.0,Open,2011
Palisade Convenience Store,-74.1091421,40.872570200000006,30,1,1298000.0,Open,2011
Santiago Supermarket Inc,-74.2652768,40.513377500000004,12,2,458000.0,Open,2011
Super Mini Mart,-75.02659200000001,39.483917100000006,8,3,716000.0,Open,2011
36th Street Grocery LLC,-74.02506,40.772962,55,1,231000.0,Open,2011
Country Farms,-74.52231929999999,40.6710902,4,3,793000.0,Open,2011
Deli Delish Grocery,-74.15236999999999,40.9244759,19,2,416000.0,Open,2011
Fermin Grocery Deli,-74.1638377,40.9103758,20,2,416000.0,Open,2011
Fred's Party Shop,-74.17142890000001,40.814791,26,3,407000.0,Open,2011
Huck's Place,-74.23583199999999,39.676731,6,2,518000.0,Open,2011
Bahati Inc,-75.46781290000001,39.7295402,3,1,333000.0,Open,2011
Bob's Newshop & Greeting Cards,-75.126862,39.8704353,23,1,159000.0,Open,2011
Country Farm,-73.44649659999999,40.736582500000004,1,2,458000.0,Open,2011
Eagle Rock & Eisenhower,-74.325662,40.8214947,12,3,3631000.0,Open,2011
Jersey Pride Food Store,-74.39223890000001,40.391695899999995,10,2,458000.0,Open,2011
Kathy Super Market,-74.128148,40.87654620000001,29,2,416000.0,Open,2011
Kennedy's News Agency,-75.110901,39.702338,8,2,89000.0,Open,2011
Krauser's Food Store,-74.18091109999999,40.95437879999999,17,2,416000.0,Open,2011
LA Guadalupana,-75.234264,39.429652000000004,2,1,156000.0,Open,2011
Latino Supermarket,-74.15117729999999,40.9378976,19,1,208000.0,Open,2011
Little Brown Jug,-74.0435069,40.2067311,8,2,458000.0,Open,2011
Azcona,-74.2053218,40.672951700000006,25,2,481000.0,Open,2011
Bayonne Dollar & Grocery,-74.1032002,40.6860656,18,2,327000.0,Open,2011
Bella Vista Grocery,-74.136549,40.8558313,29,2,416000.0,Open,2011
Bergen Avenue Corp,-74.078685,40.715756799999994,32,1,231000.0,Open,2011
Bobby Leon Grocery,-74.1869543,40.7760803,25,1,243000.0,Open,2011
Caisaguano Grocery,-73.8964014,40.9029708,59,2,461000.0,Open,2011
Carrasco's Grocery Store,-75.2355553,39.429017200000004,2,2,478000.0,Open,2011
E Z Mart,-74.9629338,39.4555381,8,3,716000.0,Open,2011
El Pablano Grocery,-74.2096476,39.985094399999994,8,2,518000.0,Open,2011
Garden State Farms,-74.13711009999999,40.951057,20,2,505000.0,Open,2011
Gomez Grocery,-75.08420090000001,39.946501399999995,29,2,443000.0,Open,2011
Grab & Go Jersey City,-74.0629669,40.7442616,39,3,692000.0,Open,2011
Grover Convenience Store,-74.2737765,40.24752,10,2,458000.0,Open,2011
Hackensack Convenience Store,-74.04279759999999,40.8930789,23,2,505000.0,Open,2011
Healthfair Vitamin Ctr,-74.0432771,40.32887410000001,11,15,2379000.0,Open,2011
Joe's Market,-74.2398045,40.7245471,26,6,988000.0,Open,2011
Jordan Convenience Corner,-73.9835309,40.8957714,22,2,505000.0,Open,2011
LA Tiendita Mini Market,-74.46066280000001,40.490738799999995,10,2,459000.0,Open,2011
Liberty Gourmet,-74.033711,40.750918,54,2,461000.0,Open,2011
Limarket,-75.0785209,40.8299317,0,2,469000.0,Open,2011
Liz Supermarket LLC,-74.13959059999999,40.7349889,19,2,486000.0,Open,2011
Doc Popcorn,-74.30151059999999,40.5559486,16,3,687000.0,Open,2011
T & C Food Market,-75.1235109,39.938612,31,5,1108000.0,Open,2011
A & G Supermarket Inc,-74.2033752,40.6896184,22,2,486000.0,Open,2011
Al-Amana Meat & Grocery Mart,-74.07181640000002,40.7334679,39,2,461000.0,Open,2011
American Island Market,-74.72815159999999,40.2280519,8,3,704000.0,Open,2011
Ariana Supermarket LLC,-74.21153559999999,40.7378508,26,2,486000.0,Open,2011
Ashely's Supermarket,-74.1849593,40.7518033,17,2,486000.0,Open,2011
Bbg Grocery,-74.0849259,40.70616679999999,21,3,692000.0,Open,2011
Caracol Grocery,-74.0454845,40.7557342,49,1,231000.0,Open,2011
Carniceria El Prado,-74.0321008,40.7685592,55,1,231000.0,Open,2011
Circle Convenience Store,-74.2518051,40.7149847,26,1,243000.0,Open,2011
Coco Market,-74.1051158,40.6837744,18,1,231000.0,Open,2011
Country Conv Store,-74.2957488,41.0068375,9,1,208000.0,Open,2011
Country Farm,-75.0313837,39.8493159,21,1,222000.0,Open,2011
Country Farm Store,-74.4373357,40.6862326,10,2,481000.0,Open,2011
Cove,-74.023076,40.207316999999996,8,2,458000.0,Open,2011
Deli Grocery,-74.0266843,40.776089,55,2,461000.0,Open,2011
Dollar Produce,-74.8740131,39.014113200000004,8,2,817000.0,Open,2011
EZ Market & Liquor,-74.087358,40.7207268,32,2,461000.0,Open,2011
Gas Go Inc,-74.9261292,40.5086372,4,1,1010000.0,Open,2011
Gino's Market,-75.1675117,40.6849006,5,1,235000.0,Open,2011
Ionian Petroleum Inc,-74.4145249,40.5070922,22,6,8036000.0,Open,2011
Jerez Mini Market,-73.9596031,40.8136973,59,2,461000.0,Open,2011
Jersey Grocery,-74.0814288,40.7089718,21,1,231000.0,Open,2011
Kilroy's Administrative Office,-74.12771219999999,40.9619393,19,50,12617000.0,Open,2011
Krausers Food Store,-74.7018359,40.781774600000006,4,2,529000.0,Open,2011
KWIK-FILL USA,-74.5304905,40.420195899999996,8,4,5357000.0,Open,2011
LA 37 Grocery Meat,-74.0268679,40.7746487,55,4,922000.0,Open,2011
LA Bodega,-74.03991070000001,40.7580526,55,2,461000.0,Open,2011
LA Dona Grocery & Deli,-74.12329799999999,40.662377899999996,18,2,461000.0,Open,2011
LA Familia Grocery LLC,-74.7392162,40.2075236,8,3,704000.0,Open,2011
Las Palmas,-74.08357190000001,40.712346600000004,21,2,461000.0,Open,2011
Lee Liquor & Grocery Store,-74.0422444,40.7492318,49,4,1333000.0,Open,2011
Lizardo Deli Grocery,-74.2299693,40.7813635,16,2,486000.0,Open,2011
Luciano Mini Market,-74.746431,40.231199,6,3,704000.0,Open,2011
Lupita Groceries,-74.66495069999999,40.3559447,7,2,342000.0,Open,2011
M & S Grocery,-74.7709429,40.1153045,8,2,473000.0,Open,2011
El Guero Svc,-74.44887609999999,40.488217,20,1,229000.0,Open,2011
509 Grove Deli,-74.2131468,40.7398909,26,2,486000.0,Open,2011
A & D Supermarket,-74.0233334,40.780090200000004,55,2,461000.0,Open,2011
A & J Grocery,-74.0115358,40.7869657,59,2,461000.0,Open,2011
A & L Mini Mart,-74.228115,40.763943,16,2,486000.0,Open,2011
Abreu Mini Market,-74.09814140000002,40.690445700000005,21,2,461000.0,Open,2011
Aladin News & Grocery LLC,-74.0786269,40.7189932,32,2,461000.0,Open,2011
Aliah Grocery,-74.0133335,40.7890802,59,2,461000.0,Open,2011
Alimir George Grocery LLC,-74.0696171,40.724608200000006,39,2,461000.0,Open,2011
American Pinoy Food Mart,-73.9960189,40.92749,20,2,505000.0,Open,2011
American Pinoy Food Mart Inc,-74.1031657,40.6933755,18,6,1383000.0,Open,2011
Anderson Grocery Inc,-74.069805,40.7239486,39,3,692000.0,Open,2011
Arb1 Trading Inc,-74.044628,40.720650799999994,48,4,654000.0,Open,2011
Atos Food,-74.2903934,40.8468977,11,2,486000.0,Open,2011
B & A Hoboken Inc,-74.028982,40.7539948,54,6,9085000.0,Open,2011
Bello Grocery Store,-74.0925892,40.6916347,21,2,461000.0,Open,2011
Best Mexican Deli & Grocery,-84.2363036,32.557252899999995,3,1,265000.0,Open,2011
Broad St Food Plaza,-74.1799142,40.723206,22,3,728000.0,Open,2011
Brunswick Mini Market LLC,-74.7544403,40.2333835,6,2,469000.0,Open,2011
Cibao Groceries,-74.4471358,40.4830466,20,3,687000.0,Open,2011
Constansa Supermarket,-74.2761373,40.510676700000005,12,3,576000.0,Open,2011
Consuelo Mini Market,-74.18056440000001,40.928352200000006,18,3,623000.0,Open,2011
Cooke Avenue Convenience,-74.22034000000001,40.577138700000006,18,2,458000.0,Open,2011
Cream Ridge Country Mkt-Lqrs,-74.49693359999999,40.1110591,0,2,579000.0,Open,2011
Cuba Mini Mart,-74.0099396,40.7908033,59,1,231000.0,Open,2011
Daisey's Food Store,-74.2753734,40.5180338,12,4,916000.0,Open,2011
Dariana Grocery,-74.4435635,40.4864773,20,2,458000.0,Open,2011
Desi Corner,-74.5769925,40.327694799999996,8,1,229000.0,Open,2011
Dollar Industry LLC,-74.1723462,40.7361696,17,8,1941000.0,Open,2011
East Orange Supermarket,-74.21100820000001,40.7651806,18,2,486000.0,Open,2011
Eco Hoboken LLC,-74.0300417,40.750203000000006,54,2,461000.0,Open,2011
El Cibao Grocery,-74.18094609999999,40.92378970000001,18,3,623000.0,Open,2011
Espana Grocery,-74.03728309999998,40.760563399999995,55,2,461000.0,Open,2011
Extra Supermarket,-74.01637070000001,40.785410299999995,59,10,2304000.0,Open,2011
F & N Corp LLC,-74.01768929999999,40.7894783,59,1,231000.0,Open,2011
Fine Grocery Store Inc,-74.14688819999999,40.7480858,16,1,231000.0,Open,2011
Francis 2704 Dell Grocery,-74.0360483,40.7625184,55,2,461000.0,Open,2011
Freehold Liquor Convenience,-74.3114589,40.236018,10,3,868000.0,Open,2011
Fruit Grocery My Family,-75.1911648,40.6867825,5,2,469000.0,Open,2011
Gonzaga Grocery,-74.27529799999999,40.5122973,12,2,458000.0,Open,2011
Gutierrez Grocery,-74.18398470000001,40.9167164,18,1,208000.0,Open,2011
H & Y Food Market,-74.01073249999999,40.8316965,48,2,505000.0,Open,2011
H & Y Minimart,-74.199733,40.744964,15,3,728000.0,Open,2011
Hari Mini Store,-74.2176581,40.7877893,18,1,243000.0,Open,2011
Ideal Supermarket & Deli Inc,-74.2683212,40.5201591,12,4,916000.0,Open,2011
J & M Grocery Inc,-74.2094402,40.7373521,15,4,971000.0,Open,2011
J A,-74.74373100000001,40.210932299999996,8,2,469000.0,Open,2011
J M Grocery Store,-74.19080679999999,40.758936299999995,17,2,486000.0,Open,2011
Jacques Grocery,-74.76232409999999,40.233032200000004,6,3,704000.0,Open,2011
Jocelyn's Deli,-74.15625759999999,40.7548943,20,1,231000.0,Open,2011
Jose Supermarket,-74.2146921,40.7107211,24,2,486000.0,Open,2011
Josmary Deli & Grocery,-74.7442453,40.209254200000004,8,5,1173000.0,Open,2011
Jumbo Mini Market,-74.02627120000001,40.7792715,55,2,461000.0,Open,2011
Kelvin Mini MARKET LLC,-74.1245713,40.8703271,29,2,416000.0,Open,2011
Kennedy News,-74.0092963,40.8070454,55,2,461000.0,Open,2011
Kenya Deli Grocery,-74.0713883,40.7194789,32,2,461000.0,Open,2011
Krauzers,-74.2503268,40.7664046,11,3,728000.0,Open,2011
Kristal Grocery & Deli,-74.0104196,40.793420000000005,59,2,461000.0,Open,2011
LA Mia Grocery,-74.0753235,40.7151185,32,1,231000.0,Open,2011
LA Perfecta Supermarket,-74.070299,40.72136629999999,32,2,461000.0,Open,2011
LA Union Grocery,-74.44233840000001,40.487638700000005,20,2,458000.0,Open,2011
Los Precios Supermarket,-74.03070079999999,40.7704643,55,12,2765000.0,Open,2011
Easy Food Market Corp,-74.21581479999999,40.781816600000006,18,2,486000.0,Open,2011
El Yuca,-74.14180309999999,40.7309739,19,1,243000.0,Open,2011
F & F Deli & Grocery,-74.4413194,40.489624299999996,20,2,458000.0,Open,2011
Acapulco Grocery & Deli,-74.1144758,40.6680417,18,2,461000.0,Open,2011
Al-Madina Grocery & Fish,-74.1720481,40.91946110000001,20,2,416000.0,Open,2011
Andri Deli Grocery,-74.0134821,40.7806664,59,2,461000.0,Open,2011
Apna Bazar Cash & Carry,-74.3457339,40.5734344,26,22,5036000.0,Open,2011
B & C Foods,-74.6272794,40.2189324,6,8,1876000.0,Open,2011
Bally Grocery Store,-74.1642964,40.911403,20,2,416000.0,Open,2011
Bisono Supermarket,-74.1958975,40.749067100000005,17,4,971000.0,Open,2011
Carteret Grocery,-74.2183338,40.582601600000004,18,2,458000.0,Open,2011
Ciales Grocery Inc,-74.1773864,40.7613969,17,1,243000.0,Open,2011
Cierra Grocery,-74.139663,40.8586659,29,1,208000.0,Open,2011
Easymart,-74.3850463,40.397430299999996,10,2,458000.0,Open,2011
El Chevy Grocery,-74.07899300000001,40.705512,21,2,461000.0,Open,2011
Extra Savings Supermarket,-74.4520589,40.492168,20,8,1832000.0,Open,2011
Family Grocery,-74.2118078,40.770157700000006,18,3,728000.0,Open,2011
General Eight Brothers,-74.19743390000001,40.739258500000005,15,2,486000.0,Open,2011
Grab N Go Deli Grocery,-74.08463409999999,40.7113926,21,2,461000.0,Open,2011
Gro Mart,-74.0585037,40.7903213,43,2,461000.0,Open,2011
India Grocers,-74.3403181,40.5715854,26,2,458000.0,Open,2011
Inoa Food Market,-75.11031940000001,39.9370688,31,2,443000.0,Open,2011
Internation Mexican Groc,-74.0427725,40.266442100000006,9,2,458000.0,Open,2011
International Super Market,-74.2093809,40.089945,10,2,518000.0,Open,2011
Jasmine Grocery Store,-74.1638377,40.9103758,20,2,416000.0,Open,2011
Kosher Village LLC,-74.1993142,40.105167,10,2,518000.0,Open,2011
LA Ideal Supermarket,-74.19782370000001,40.6491384,24,1,241000.0,Open,2011
Lissette Supermarket,-74.1721054,40.910737,20,2,416000.0,Open,2011
Luna Grocery,-74.2320785,40.7868696,11,2,486000.0,Open,2011
M & B One Mini Market,-74.13110759999999,40.8691882,29,3,623000.0,Open,2011
G & S Supermarket,-74.21517370000001,40.675552200000006,25,3,721000.0,Open,2011
Monegro Grocery,-74.0610083,40.710486700000004,32,2,461000.0,Open,2011
Quick Fresh,-74.1871607,40.742533,15,2,486000.0,Open,2011
76 Gas Station,-74.29828940000002,40.2936679,11,4,4420000.0,Open,2011
Babes Corner Store,-74.0749166,39.941312599999996,4,2,518000.0,Open,2011
Bowers Grocery,-74.0527873,40.748863899999996,49,2,461000.0,Open,2011
Bridge Street Svc Ctr,-75.0698298,40.5489559,0,2,353000.0,Open,2011
Elian Grocery,-74.22410009999999,40.7501527,15,2,486000.0,Open,2011
Glass Gardens,-74.08049759999999,40.91522020000001,24,2,505000.0,Open,2011
Health Aid Drug Pharmacy,-74.0490892,40.735947700000004,39,4,1440000.0,Open,2011
LA Economic Mini Market,-74.1561774,40.7441182,16,2,461000.0,Open,2011
Center Food Market,-75.1215397,39.9377326,31,2,443000.0,Open,2011
Lucky 7 Marlton Deli,-74.92128819999999,39.89530379999999,13,2,473000.0,Open,2011
Caba Grocery Inc,-74.2715073,40.5040975,12,2,458000.0,Open,2011
Country Farm,-74.3186249,40.5725659,21,1,229000.0,Open,2011
Country Farm Food Store,-74.72527099999999,39.4569861,2,1,265000.0,Open,2011
D G's Place,-74.20669740000001,40.81608129999999,19,3,728000.0,Open,2011
E Z Stop,-74.5722102,41.139104100000004,5,8,818000.0,Open,2011
Family Grocery,-74.231941,40.738074700000006,22,2,486000.0,Open,2011
Hometown Market Forked River,-74.2018365,39.8231429,3,7,1810000.0,Open,2011
Izucar Deli & Grocery,-74.11657,40.866200899999995,29,1,208000.0,Open,2011
J N R Grocery Corp,-74.4048366,40.817943400000004,15,1,272000.0,Open,2011
K F Trucking,-74.2819361,40.656286,32,10,2533000.0,Open,2011
Long Branch Convenience Stores,-74.000013,40.2997592,7,2,458000.0,Open,2011
Food Express Flemington Nj,-74.8567015,40.5218251,4,1,58000.0,Open,2011
Minit Mart,-74.36041290000001,40.4600385,12,2,458000.0,Open,2011
A D Foods,-74.02718929999999,40.2143443,8,3,687000.0,Open,2011
A R Supermarket,-74.2660521,40.5127979,12,1,229000.0,Open,2011
Andeliz Food Market,-75.0213181,39.480042600000004,8,3,716000.0,Open,2011
Associated Supermarket,-74.16310820000001,40.9145637,20,2,416000.0,Open,2011
Associated Supermarket,-75.0579205,39.962915100000004,27,2,443000.0,Open,2011
Big John's Grocery Store,-74.17441590000001,40.7523527,17,2,486000.0,Open,2011
Compare Foods,-74.1245007,40.862218299999995,29,85,17643000.0,Open,2011
Country Farm,-74.3521989,39.9463042,3,2,518000.0,Open,2011
D & Y Convenience Store,-74.2450314,40.884353499999996,19,2,416000.0,Open,2011
Gateway Of India Store,-74.6412603,40.3002179,8,3,704000.0,Open,2011
George Street Corner & Grocery,-74.2239479,40.780286,16,2,486000.0,Open,2011
Hackensack Market,-74.044249,40.89261079999999,23,30,7571000.0,Open,2011
Happy Day Convenience Store,-74.4282661,40.6213107,17,5,1146000.0,Open,2011
KB'S African Market,-74.0431053,40.8937351,23,2,505000.0,Open,2011
Krauser's Food Store,-74.139066,40.8874448,29,2,416000.0,Open,2011
LA Mia Stop I,-74.1326078,40.8622566,29,2,416000.0,Open,2011
LA Paloma,-74.1705345,40.72160170000001,22,2,486000.0,Open,2011
Latino Mini Market,-74.53188670000002,40.5618028,8,2,459000.0,Open,2011
A & P Food Store,-74.2877577,40.5660513,16,99,22662000.0,Closed,2011
21st Avenue Deli Grocery,-74.1608825,40.907186100000004,20,2,110000.0,Open,2011
A & LP ITALIAN Food Ctr,-74.8025037,39.0003751,7,10,4082000.0,Open,2011
Al Madins Supermarket LLC,-74.192839,40.920271,17,2,416000.0,Open,2011
Al Paso Food Ctr,-74.0336675,40.7655811,55,2,461000.0,Open,2011
Alexca Grocery Deli Inc,-74.2018823,40.708465999999994,24,2,486000.0,Open,2011
Ando Jersey City West Indian,-74.0766199,40.7262427,39,2,461000.0,Open,2011
Ans LLC,-74.038208,40.714413799999996,48,2,361000.0,Open,2011
Atlantic Tire & Towing,-74.6336886,40.862813200000005,7,3,3777000.0,Open,2011
Bautista Grocery,-74.81495720000001,38.98827,7,1,409000.0,Open,2011
Bergen Grocery Store Corp,-74.07757209999998,40.7172513,32,1,231000.0,Open,2011
Better Quality Convenience Str,-74.2262094,40.7587128,15,3,179000.0,Open,2011
Bisomo Super Market Stop,-74.24903,40.758778,16,3,728000.0,Open,2011
Checo Supermarket,-73.995272,40.81544,55,2,505000.0,Open,2011
Clarissas Supermarket Inc,-74.0751973,40.7153035,32,3,692000.0,Open,2011
Clark Commons LLC,-74.3052213,40.631499700000006,23,4,283000.0,Open,2011
Corner News,-74.04160209999999,40.76114260000001,55,1,231000.0,Open,2011
Country Farms,-74.9976303,39.5535443,0,3,476000.0,Open,2011
Country Farms,-74.04768370000001,40.0841927,8,1,259000.0,Open,2011
E Z Market,-74.173689,40.7424929,17,6,1456000.0,Open,2011
Edison Oil Corp,-74.3772468,40.5328766,22,3,4018000.0,Open,2011
Englishtown Liquors-Convience,-74.3581746,40.295725899999994,11,4,1157000.0,Open,2011
Family Supermarket,-74.73817729999999,40.208830999999996,8,2,469000.0,Open,2011
Five Corners,-74.0315152,40.9918442,15,1,253000.0,Open,2011
Food Barn,-74.61913559999999,41.205375700000005,1,9,2235000.0,Open,2011
Food Mart,-74.44727320000001,40.446709600000005,13,3,687000.0,Open,2011
Foodzon Corp,-74.22559559999999,40.7055618,27,2,327000.0,Open,2011
Four Seasons Thai Cuisine,-74.42219720000001,40.539828899999996,17,5,1145000.0,Open,2011
Freddy's Corner,-74.1996581,40.8937887,19,1,338000.0,Open,2011
Grier Ave Supermarket,-74.2237562,40.6451981,28,2,481000.0,Open,2011
Hoboken Mini Mart,-74.0293926,40.743279799999996,54,2,461000.0,Open,2011
Hummus Taza Mediterranean Mkt,-74.5599514,39.389058399999996,9,2,529000.0,Open,2011
Judy Supermarket,-74.2049959,40.7662975,18,2,486000.0,Open,2011
Juquila,-74.0765797,40.3472831,12,1,229000.0,Open,2011
Kings 99 Cents Officekings 99,-74.158726,40.90716,20,4,907000.0,Open,2011
LA Plaza,-75.024658,39.486468,8,1,239000.0,Open,2011
Lapalma Grocery Li,-74.203685,39.9683919,8,2,518000.0,Open,2011
Liberty Food Market,-74.288239,40.676952,31,4,961000.0,Open,2011
Livotis Old World Market,-74.22720679999999,40.400067799999995,12,3,368000.0,Open,2011
Los Tiburones Supermarket,-74.1985588,40.724888799999995,20,7,1699000.0,Open,2011
Fairway Market,-73.9813041,40.83943,40,2,505000.0,Open,2011
205 Market & Futons Inc,-74.1697547,40.916366700000005,18,2,416000.0,Open,2011
5 B Grocery & Deli,-74.07109,40.7323178,39,2,461000.0,Open,2011
7 Even Food Mart,-74.040269,40.751245700000005,49,2,461000.0,Open,2011
786 Food Store,-74.569417,40.906268700000005,8,3,793000.0,Open,2011
88 West Deli & Grocery,-74.1347824,40.074883899999996,9,7,1810000.0,Open,2011
911 Quick Stop,-74.22008520000001,40.7678373,15,3,728000.0,Open,2011
A & B Grocery,-74.0475792,40.744998100000004,49,1,231000.0,Open,2011
A & G Minimarket,-74.1390035,40.8640865,29,2,416000.0,Open,2011
A Seabra Foods,-74.269834,40.6771955,29,2,481000.0,Open,2011
Acoreana Grocery Store,-74.18370949999999,40.652956700000004,24,3,721000.0,Open,2011
Agro Foods,-74.8227448,40.830519,4,4,1057000.0,Open,2011
Akisha Food Mart,-74.2733868,40.6070753,25,2,481000.0,Open,2011
Alanric Food Distributors Inc,-75.2068821,39.8364501,13,2,318000.0,Open,2011
Aldo Food Market,-74.2193156,40.7679615,18,3,728000.0,Open,2011
Alexandra Food Ctr,-74.16947950000001,40.7669137,17,5,1214000.0,Open,2011
All Food & Candy,-74.29841479999999,40.8742352,7,4,7660000.0,Open,2011
Alma Food Group LLC,-74.1618194,40.9220684,20,2,416000.0,Open,2011
Alsalm Market LLC,-74.1541132,40.88901920000001,29,2,416000.0,Open,2011
Amasuper Market,-74.2028157,40.65832929999999,25,10,2087000.0,Open,2011
Amboy Deli Grocery,-74.281409,40.5087717,12,3,687000.0,Open,2011
Amboy Food Liquor & News,-74.2798316,40.4834925,9,6,1374000.0,Open,2011
American Pinoy Food,-74.1753964,40.89027279999999,27,2,416000.0,Open,2011
Amish Marketplace Inc,-74.0435311,40.72049620000001,48,2,461000.0,Open,2011
AMY Grocery & Deli,-74.184269,40.932541,17,2,416000.0,Open,2011
Angel Mini Food Mart,-74.053754,40.751931899999995,49,2,461000.0,Open,2011
Anj Deli & Mini Market,-74.0469327,40.7617032,55,2,461000.0,Open,2011
Annapurna Indian Grocery,-74.0253677,40.8903969,23,1,253000.0,Open,2011
Apna Bazar,-74.51858840000001,40.3810764,8,10,2290000.0,Open,2011
Arlette Mexican Italian Market,-74.0263027,40.177071999999995,12,2,458000.0,Open,2011
Aroma Food LLC,-74.5280457,40.440758,11,2,458000.0,Open,2011
Asafo African Market,-74.0414415,40.8875594,23,1,253000.0,Open,2011
Asian American Food Mart,-73.99788840000001,40.9286691,20,2,505000.0,Open,2011
Asian Food Ctr Of Route 22,-74.4511991,40.6193606,17,40,9166000.0,Open,2011
Asian Food Market,-74.095239,40.7204276,32,2,461000.0,Open,2011
Asian Food Markets,-74.5941073,40.336799400000004,8,40,9157000.0,Open,2011
Asian Food Markets Corporate,-74.4138844,40.561842600000006,24,2,458000.0,Open,2011
Aster Market Commercial,-74.2644245,40.9158412,12,2,416000.0,Open,2011
Atco Food Co,-74.856607,39.7750906,3,4,886000.0,Open,2011
Athenia Food Mart,-74.1512691,40.8600656,27,3,623000.0,Open,2011
Axess Market,-74.0722373,40.7785344,43,2,461000.0,Open,2011
B J's Country Store & Deli,-74.8600563,39.9815909,15,3,709000.0,Open,2011
B54 Enterprises LLC,-74.05034570000001,40.2866177,10,3,687000.0,Open,2011
Babco Foods Intl,-74.5912015,40.5721451,9,2,459000.0,Open,2011
Basics & Smoke Shop,-74.44254000000001,40.352741200000004,2,2,458000.0,Open,2011
Benne's Tire & Auto Ctr,-75.2513926,39.827055200000004,7,4,3952000.0,Open,2011
Bergenline Supermarket Inc,-74.0059122,40.803369200000006,55,6,1383000.0,Open,2011
Bhavani Cash & Carry,-74.51286590000001,40.5844655,17,3,1779000.0,Open,2011
Biedronka,-74.27175940000001,40.62769960000001,28,2,481000.0,Open,2011
Bk Fort Lee,-73.97965119999999,40.8456691,40,6,1515000.0,Open,2011
Bombay Foods Inc,-74.2019495,39.966765,8,1,259000.0,Open,2011
Bombolom Liquors Inc,-74.1539526,40.9312239,19,2,676000.0,Open,2011
Bongo African Grocery,-74.42734499999999,39.36168,3,2,529000.0,Open,2011
Boulevard Food Store,-73.984813,40.84768,40,2,505000.0,Open,2011
Brooklawn Food Market,-75.1188494,39.879692299999995,27,2,443000.0,Open,2011
Brother N Law Deli & Grocery,-74.7728319,40.230779999999996,6,3,704000.0,Open,2011
Brother's Supermarket,-74.2793003,40.509836299999996,12,2,458000.0,Open,2011
Brothers Grocery,-122.2542665,37.817631799999994,17,2,486000.0,Open,2011
Bubushka's Deli,-74.3220417,40.775105700000005,12,4,971000.0,Open,2011
Busy Bee Foods,-74.7557203,41.0642375,3,5,1242000.0,Open,2011
C & M Mini Market,-74.0670873,40.7317774,39,2,461000.0,Open,2011
Canada Dry,-74.1363976,40.1806685,1,3,687000.0,Open,2011
Cariben Deli Grocery,-74.75023440000001,40.2124801,8,3,704000.0,Open,2011
Carmillo Mini Market,-74.182689,40.9226479,18,2,416000.0,Open,2011
Catered Cuisine Of Pennington,-74.7978876,40.326287799999996,3,2,469000.0,Open,2011
Center Convenience Food,-74.0315729,40.993011100000004,15,3,758000.0,Open,2011
Central Food Market-Camden,-75.1215397,39.9377326,31,2,443000.0,Open,2011
Chairman Asian Food Mart Inc,-74.0659744,40.7227393,32,2,461000.0,Open,2011
Chancellor Food Market,-74.2321018,40.7142052,26,2,486000.0,Open,2011
Cheap Food Market,-74.21030879999999,40.72744229999999,20,2,486000.0,Open,2011
Chef's Fine Food,-74.3056338,40.7113709,22,2,481000.0,Open,2011
Chen's Harrison Supermarket,-74.1490672,40.7474456,16,2,461000.0,Open,2011
Chestnut Deli & Grocery,-74.74707190000001,40.2134809,8,3,704000.0,Open,2011
Chiko's Grocery & Deli,-74.059214,40.713534,32,2,461000.0,Open,2011
Choice Food Store,-74.2367783,40.4492549,11,2,458000.0,Open,2011
Cigare Food Market,-74.044303,40.7583183,55,2,461000.0,Open,2011
Citit Mini Market LLC,-74.1080982,40.869061200000004,30,2,505000.0,Open,2011
Clark Lunch Box,-74.3151635,40.628190100000005,23,2,481000.0,Open,2011
Clement Pappas & Co Inc,-75.4434855,39.7043683,3,630,190679000.0,Open,2011
Cliffside Park Marketplace Inc,-73.98536740000002,40.830121500000004,56,2,505000.0,Open,2011
Coffee & Kitchen,-74.5585488,40.5779912,8,2,459000.0,Open,2011
Commercial Mexicana LLC,-74.81778100000001,38.989477,7,5,2041000.0,Open,2011
Compare Foods,-74.0347401,40.7646297,55,5,1152000.0,Open,2011
Corner Shop,-74.1198898,40.884823100000006,30,2,505000.0,Open,2011
Country Farm,-74.9989085,39.7931481,16,2,443000.0,Open,2011
Country Farms,-74.7418302,39.893695,0,1,237000.0,Open,2011
Country Farms Food Store,-74.20004909999999,40.432781899999995,11,2,458000.0,Open,2011
Cristal Market LLC,-74.5290603,40.561632,8,1,230000.0,Open,2011
D & A Market & Deli,-74.7813288,40.2350273,6,10,2345000.0,Open,2011
D D Grocery,-74.23041740000001,40.7783341,18,3,728000.0,Open,2011
D W Deli & Grocery,-74.14961770000001,40.7308372,19,2,486000.0,Open,2011
Daily Fresh Market Corp,-75.0681872,39.945856400000004,28,2,443000.0,Open,2011
Daily Savings,-75.1025595,39.9322679,31,4,886000.0,Open,2011
Deco Daves Food Market Inc,-74.00543909999999,40.8874868,23,4,1010000.0,Open,2011
Del Maximo Foods,-74.1482644,40.89022,29,2,416000.0,Open,2011
Discount Food Market & Deli,-74.0045589,40.7907441,59,2,461000.0,Open,2011
Divya Convenience Inc,-74.069349,40.72905,39,2,461000.0,Open,2011
Dodo Food Market,-74.1209582,40.660558200000004,18,1,231000.0,Open,2011
Dollar Stop,-75.1066324,39.70274179999999,8,2,318000.0,Open,2011
Duran Food Store,-74.26884840000001,40.514317600000005,12,2,458000.0,Open,2011
E G Mini Market,-74.182457,40.76878,17,2,486000.0,Open,2011
E Z Check Food Store,-74.2651121,40.6374194,28,2,481000.0,Open,2011
East West Food Mart LLC,-74.1821524,40.7977978,25,3,728000.0,Open,2011
Eastern Grocery,-74.1493437,40.8905775,24,2,416000.0,Open,2011
Eco Food Store I,-74.02595059999999,40.7692737,55,2,461000.0,Open,2011
Eddy's Supermarket,-74.1924808,40.7217201,20,4,971000.0,Open,2011
Efficiant Market Svc,-74.1161804,40.8819724,30,2,505000.0,Open,2011
El Bravo Mini Market II,-74.0893602,40.6991819,21,3,692000.0,Open,2011
El Mercado,-74.2139167,40.092383899999994,10,2,518000.0,Open,2011
El National Supermarkets,-74.125877,40.8653409,29,5,1038000.0,Open,2011
El Padrino Grocery,-74.4216253,40.6199931,17,2,481000.0,Open,2011
El Pautenito's & Deli,-74.0497605,40.877075399999995,23,2,505000.0,Open,2011
El Rodeo,-74.1227458,41.011550299999996,16,2,505000.0,Open,2011
El Tiburon Supermarket,-74.763949,40.220757,6,3,704000.0,Open,2011
El Toro Supermarket,-74.743914,40.204172,8,3,704000.0,Open,2011
Elba Grocery & Deli,-74.08739240000001,40.7009213,21,2,461000.0,Open,2011
Ernie's Market,-75.10105990000001,39.9369755,31,2,443000.0,Open,2011
Europa Pombalense Supermarket,-74.2054189,40.679174200000006,25,6,1441000.0,Open,2011
Evelyn Grocery,-74.124073,40.8729347,29,1,208000.0,Open,2011
Evergreen Kosher Market,-74.2183898,40.0631226,10,2,518000.0,Open,2011
Express Food Market,-75.1239352,39.8029421,9,3,476000.0,Open,2011
Fair Deal Market,-75.2829274,39.8253489,5,1,159000.0,Open,2011
Fairfield Food Market,-74.31370030000001,40.8755701,7,4,971000.0,Open,2011
Fairfield Food Mart & Deli,-74.2894079,40.880672600000004,7,2,486000.0,Open,2011
Family Food Market,-74.83309890000001,40.8254891,4,2,469000.0,Open,2011
Fancy Foods,-74.3262807,40.577386,21,2,458000.0,Open,2011
Farafina International Market,-74.2170821,40.7287743,26,3,728000.0,Open,2011
Fatima's Grocery,-74.1568196,40.914935799999995,20,2,416000.0,Open,2011
Feldman's Grocery,-74.215399,40.094844200000004,10,2,518000.0,Open,2011
Fernandez Deli Market,-74.115535,40.868229,29,1,208000.0,Open,2011
Fernandez Food Market,-74.16622659999999,40.9102181,20,2,416000.0,Open,2011
Fiji Meadowland LLC,-74.0080392,40.8001846,55,3,692000.0,Open,2011
Finarc Market,-74.262052,40.7047568,29,2,481000.0,Open,2011
Fine Faire,-74.4698728,40.4931776,10,12,2750000.0,Open,2011
FM Supermarket,-75.1139116,39.95307570000001,28,2,443000.0,Open,2011
Food Choice Supermarket,-74.2438791,40.724154799999994,26,2,486000.0,Open,2011
Food Depot Select,-74.15725529999999,40.7535573,20,2,461000.0,Open,2011
Food Mart,-75.030334,39.8589263,25,2,443000.0,Open,2011
Food Mart & Deli,-74.2948625,41.0075352,9,2,416000.0,Open,2011
Food Mart USA,-74.1123423,40.898532200000005,25,3,758000.0,Open,2011
Food Myungga Inc,-74.41077840000001,40.5092079,22,2,458000.0,Open,2011
Food Pro Supermarket Food,-74.1616589,40.9188307,20,2,416000.0,Open,2011
Food Stores Inc,-74.2972001,41.029280299999996,7,2,416000.0,Open,2011
Fortuna's Food Market,-75.1086429,39.9229975,29,3,665000.0,Open,2011
Freewood Acres Food Market,-74.23808509999999,40.1682312,7,2,458000.0,Open,2011
Fresh Food Svc Express,-74.1546865,40.8973627,24,2,416000.0,Open,2011
G N Supermarket,-75.0977744,39.951797,29,2,443000.0,Open,2011
Garden Fresh Market Inc,-74.4110515,40.5786157,24,2,458000.0,Open,2011
Garfield Foodmart Inc,-74.099405,40.873188,30,1,253000.0,Open,2011
Getty Deli & Grocery,-74.1564526,40.8948951,24,4,219000.0,Open,2011
Goodies Market,-75.12573499999999,39.8957059,27,2,443000.0,Open,2011
Grab-N-Go,-74.2834718,40.961180299999995,6,2,529000.0,Open,2011
Grande Market,-73.9895684,40.3039403,7,2,458000.0,Open,2011
Groceries & Deli Los Puentes,-75.2264838,39.4345899,2,2,478000.0,Open,2011
Guatemex Grocery Store,-75.15449759999998,39.835680700000005,17,2,318000.0,Open,2011
Haddon Food Ctr,-75.10510759999998,39.924832200000004,29,2,443000.0,Open,2011
Hanover Mart,-74.6855552,39.9683777,1,3,709000.0,Open,2011
Hansel Supermarket,-74.2108027,40.7119724,24,2,486000.0,Open,2011
Harmony Massage Ctr,-74.128538,39.9621064,8,30,7756000.0,Open,2011
Helping Hand Food Pantry,-74.0367597,41.00239439999999,14,2,505000.0,Open,2011
Henry's Fine Foods,-74.23822259999999,40.8278606,16,4,971000.0,Open,2011
Hightstown Convenience,-74.5296418,40.26589129999999,4,3,704000.0,Open,2011
Home Town Food Store,-74.506365,40.103671500000004,0,3,776000.0,Open,2011
Homeopathy Overnight,-74.3524469,39.579451,2,2,518000.0,Open,2011
Honey Land Farm,-74.6264559,40.822095700000006,6,4,1057000.0,Open,2011
Ilusiones Grocery & Deli,-74.732038,40.220143900000004,8,2,469000.0,Open,2011
Indian Fields Market,-75.21376579999999,39.440031299999994,2,5,1194000.0,Open,2011
Irpinia Deli,-74.639174,40.8678424,7,3,793000.0,Open,2011
J & E Variety Daily Grocery,-74.0797249,40.704136,21,1,231000.0,Open,2011
J & J Grocery,-74.13851609999999,40.8678315,29,2,416000.0,Open,2011
J F Deli Market,-75.08287879999999,39.948412,29,2,443000.0,Open,2011
J K Los Poblanos LLC,-74.1168043,40.8667711,29,2,416000.0,Open,2011
Jay Swaminarayan LLC,-74.2695311,40.5760085,21,1,229000.0,Open,2011
Jersey Food Market,-74.7295637,40.1985999,14,3,704000.0,Open,2011
Jersey Food Market LLC,-74.093461,40.414996200000004,8,3,687000.0,Open,2011
Jj Mini Market,-74.20052609999999,40.6811479,25,2,481000.0,Open,2011
Jo Jo's Market,-74.7399477,40.226282700000006,8,2,469000.0,Open,2011
John's Deli & Grocery,-75.1199287,39.9003071,27,1,222000.0,Open,2011
Jorday Food Intl,-74.0447921,40.8811393,23,4,1010000.0,Open,2011
Joseph Mini Market,-74.2086007,40.661168100000005,25,2,481000.0,Open,2011
Jr Mini Market,-73.97776999999999,40.8958191,22,2,505000.0,Open,2011
Juanitos Takeout & Groceries,-74.07317809999999,40.348579799999996,12,10,568000.0,Open,2011
Juta Foods LLC,-74.4963193,40.476178000000004,10,3,290000.0,Open,2011
K & R Food Corp,-74.0392154,40.7653593,55,2,461000.0,Open,2011
K & S Deli & Grocer,-74.0958453,40.701418200000006,21,2,461000.0,Open,2011
Kareem Foods LLC,-74.15624620000001,40.8910331,24,2,416000.0,Open,2011
KATZ Luncheonette,-73.98830579999999,40.402677000000004,1,8,455000.0,Open,2011
Kazias Asian Lic,-74.1353563,40.4535688,9,16,909000.0,Open,2011
Kea Grocery Two LLC,-74.08016490000001,40.7036891,21,2,461000.0,Open,2011
King Grocery Store,-74.0834575,40.7072734,21,3,692000.0,Open,2011
Kingdom Supermarket,-74.1434936,40.9133521,23,2,416000.0,Open,2011
Kings Farm,-74.23290390000001,40.7221734,26,2,486000.0,Open,2011
Kings Super Mar,-74.33446090000001,40.7222919,16,2,486000.0,Open,2011
Kings Super Markets,-74.3844902,40.7126203,17,2,481000.0,Open,2011
Kings Supermarket,-74.4944045,40.6172697,7,2,459000.0,Open,2011
Kings Village Food Jc,-74.05223170000001,40.7187323,48,2,461000.0,Open,2011
Krauser's,-74.5601971,40.885780700000005,10,4,1057000.0,Open,2011
Krauzer's,-74.13563740000001,40.937801,20,2,505000.0,Open,2011
Krauzers Food Store,-74.2603443,40.1222886,6,2,518000.0,Open,2011
Kruazer Food Store,-74.0640913,40.9057996,23,2,505000.0,Open,2011
Kwick Mart,-74.4617083,40.5923625,17,4,916000.0,Open,2011
Kwick Shop Deli & Food Store,-74.42712220000001,40.620222399999996,17,2,459000.0,Open,2011
KWIK Shop,-74.3242079,41.001611,4,2,416000.0,Open,2011
KWIK Trip-Somerset,-74.4851666,40.51026029999999,10,2,459000.0,Open,2011
L & H Food Market Inc,-74.1844777,40.9336409,17,2,416000.0,Open,2011
LA Casa Supermarket,-74.20465820000001,40.6593204,25,3,721000.0,Open,2011
LA Esperanza Food Market Corp,-74.21639640000001,40.7330442,26,3,728000.0,Open,2011
LA Hacienda,-74.4596839,40.4900899,20,4,239000.0,Open,2011
LA Mia Meat Market,-74.1326078,40.8622566,29,2,349000.0,Open,2011
LA Plaza Grocery,-74.05279859999999,40.7356021,39,1,231000.0,Open,2011
LA Primera Grocery,-74.2254642,40.570212,18,1,229000.0,Open,2011
LA Valle Foods USA,-74.0889411,40.8233234,28,2,505000.0,Open,2011
Labib Convenience & Deli,-74.1687456,40.9047484,24,4,831000.0,Open,2011
Lareina Super Market,-74.2168896,40.7337383,26,2,486000.0,Open,2011
Leng-D'OR USA Inc,-74.40327909999999,40.4503875,8,50,11446000.0,Open,2011
Liberty Food Market,-74.21914770000001,40.6491011,28,2,481000.0,Open,2011
Linden Deli & Food Store Lic,-74.23684709999999,40.621925399999995,28,2,481000.0,Open,2011
Love Love,-73.97784229999999,40.826761,56,2,505000.0,Open,2011
Ltc Foods LLC,-74.1713372,40.660188299999994,25,2,481000.0,Open,2011
Lucky 3,-74.079929,40.710445,21,2,461000.0,Open,2011
Lucky 7 Wine & Liquors,-74.144418,40.788472,23,2,757000.0,Open,2011
Lucky Place M Market,-74.1619068,40.7835383,17,2,486000.0,Open,2011
M & G Grocery Store,-74.1316814,40.87988970000001,29,1,208000.0,Open,2011
M & V Grocery,-74.189087,40.951474299999994,17,1,208000.0,Open,2011
Aldy Mini Market LLC,-74.1319413,40.863095799999996,29,2,416000.0,Open,2011
Cedar Knolls Farmers Market,-74.4489995,40.82125870000001,13,8,1424000.0,Open,2011
Floritas Deli Grocery,-74.1576002,40.7524253,20,1,55000.0,Open,2011
Ideal Food Basket,-74.12173709999999,40.877514500000004,29,2,416000.0,Open,2011
Tropical Supermarket,-74.21108559999999,40.6663758,25,2,481000.0,Open,2011
3rd St Grocery,-74.18796329999999,40.65363920000001,24,2,481000.0,Open,2011
Abuelita Food Market,-74.018259,40.201476,8,3,687000.0,Open,2011
Al Amin Grocery,-74.17379100000001,40.9184349,18,1,208000.0,Open,2011
Aneuris Meat Market,-74.19117370000001,40.754430799999994,17,3,598000.0,Open,2011
Archie's Corner,-74.1999171,40.655848399999996,24,3,721000.0,Open,2011
Ayala Grocery,-74.00832240000001,40.7867594,59,2,461000.0,Open,2011
B-Corner Food Mart,-75.05066500000001,39.872387200000006,29,3,665000.0,Open,2011
Bachman's Market,-74.204863,40.781089,18,2,486000.0,Open,2011
Bagelsmith Food Store & Deli,-75.02565600000001,40.836161,0,15,3511000.0,Open,2011
Biedronka Polish Deli,-74.2177033,40.1062848,10,2,518000.0,Open,2011
Big Pantry LLC,-74.27423940000001,40.5289541,12,4,239000.0,Open,2011
Cathers Food Mart,-75.19459559999999,40.691700299999994,5,1,235000.0,Open,2011
Central Avenue Mini Market,-74.0501621,40.888022799999995,23,2,505000.0,Open,2011
Chamberlain Mini Mart,-74.1881056,40.9261435,18,2,416000.0,Open,2011
Christos Mini Mart & Pizzeria,-74.0319233,40.7466554,48,2,109000.0,Open,2011
Cidra's Supermarket,-75.021069,39.489821,8,6,1432000.0,Open,2011
Coco Supermarket,-74.1592507,40.920128999999996,20,1,208000.0,Open,2011
Community Grocery Deli,-74.0935528,40.7027844,21,1,231000.0,Open,2011
Corrado's Of Fairfield,-74.2838155,40.8850591,7,1,243000.0,Open,2011
Dalcourts Desserts,-74.6757757,41.0291734,1,2,497000.0,Open,2011
Deli Planet,-74.2935561,40.9548471,6,2,529000.0,Open,2011
East Brunswick News-Food Store,-74.3884135,40.438489600000004,8,2,458000.0,Open,2011
Edison News & Food Inc,-74.39006579999999,40.5023684,22,2,458000.0,Open,2011
Emporium 218 Supermarket,-74.1551138,40.7281537,19,10,2427000.0,Open,2011
Extra Super Market,-74.2183338,40.712495700000005,24,50,12131000.0,Open,2011
Fiji Convenience & Smoke Shop,-74.10182900000001,40.679010999999996,18,2,461000.0,Open,2011
G S Food Group LLC,-74.11881159999999,40.9775348,14,2,505000.0,Open,2011
Grace Joy Supermarket LLC,-74.21997309999999,40.6507254,28,2,481000.0,Open,2011
Hackettstown Health Food,-74.8278889,40.853189,4,1,125000.0,Open,2011
Harmony Spirits & Grocery,-75.1418142,40.7353544,5,2,592000.0,Open,2011
Havana Grocery Store,-74.4413194,40.489624299999996,20,4,916000.0,Open,2011
Hudson Food Market,-74.24664090000002,40.7626554,16,2,486000.0,Open,2011
International Mini Market,-74.03908100000001,40.7569718,55,4,922000.0,Open,2011
J & T Deli,-75.0598712,40.5270739,0,10,10100000.0,Open,2011
Jaritza Supermarket,-74.0485858,40.7518665,49,1,231000.0,Open,2011
Judy's Grocery,-74.53989720000001,40.561423600000005,8,2,459000.0,Open,2011
Kevins Corner Deli & Grocery,-74.1232627,40.6527831,18,1,231000.0,Open,2011
Kimball,-74.2169696,40.0718107,10,4,1035000.0,Open,2011
KNT Food Store,-73.96940790000001,40.910025700000006,22,1,253000.0,Open,2011
Kosher West,-74.25484279999999,40.0870009,10,2,518000.0,Open,2011
Krauser's Food Store,-74.1412,40.7790221,20,2,461000.0,Open,2011
LA Hacienda,-75.089517,39.9458475,29,2,443000.0,Open,2011
Larrys Service Station,-74.2786049,40.4819319,9,2,458000.0,Open,2011
Lee's International Foodmart,-74.23690440000001,40.72888579999999,26,2,486000.0,Open,2011
Lucky Shop,-74.06377009999999,40.886345399999996,23,2,505000.0,Open,2011
298 Danforth LLC,-74.09545250000001,40.701578600000005,21,1,231000.0,Open,2011
A1 Liquors,-74.07840959999999,40.341230200000005,12,4,629000.0,Open,2011
A1 Sub & Deli,-74.2544073,40.6403212,28,2,481000.0,Open,2011
Abarrotes Las Escondida,-75.0196931,39.487303499999996,8,1,239000.0,Open,2011
Alex Mini Market,-74.23531109999999,40.7664911,16,2,486000.0,Open,2011
Allen's Automotive,-74.5397828,40.436276899999996,8,3,622000.0,Open,2011
Allied Plastics,-74.1373991,40.7327182,19,2,486000.0,Open,2011
American Super Market,-74.4829229,40.8054908,11,3,793000.0,Open,2011
Angelo's Deli,-74.3928083,40.8126524,10,4,253000.0,Open,2011
Apna Bazaar,-73.9975569,40.92445670000001,20,2,505000.0,Open,2011
Aris Deli Grocery,-74.1825055,40.7696661,17,1,243000.0,Open,2011
Arla Foods,-74.5764692,40.650752399999995,4,2,459000.0,Open,2011
Avalon Supermarket,-74.72241329999999,39.0969583,3,2,817000.0,Open,2011
Avon Value Market,-74.2063385,40.7269198,20,2,486000.0,Open,2011
Bamboo Leaf,-74.0171032,40.2048797,8,6,341000.0,Open,2011
Barben Supermarket,-74.1602828,40.895067,24,14,2906000.0,Open,2011
Belly Deli,-74.043442,40.7562478,55,2,461000.0,Open,2011
Bernardsvile Latin Groc Store,-74.5693667,40.7179847,3,2,459000.0,Open,2011
Boemio Market,-74.3187647,40.014331799999994,2,2,518000.0,Open,2011
Broad Ave Mini Market,-74.0039436,40.8394075,48,1,253000.0,Open,2011
C & B Deli,-74.0683135,40.7339148,39,4,922000.0,Open,2011
C & M Auto Repair,-74.228083,40.7860399,11,1,100000.0,Open,2011
Calabria Pizzeria & Restaurant,-74.32598279999999,40.7734736,12,15,893000.0,Open,2011
Cappuccio's Eastside Deli,-74.9198268,39.4814023,8,2,529000.0,Open,2011
Castillo Grocery & Gift,-74.5693667,40.7179847,3,2,459000.0,Open,2011
Catalpa Mini Market,-74.27099150000001,40.5024061,12,2,458000.0,Open,2011
Ceroilfood New York Inc,-73.97115699999999,40.830473100000006,54,2,505000.0,Open,2011
Chase & Franklin,-74.9807835,39.932880100000006,29,7,1654000.0,Open,2011
Chestnut Mart Of Newton Inc,-74.751423,41.0606175,3,5,5549000.0,Open,2011
Cioffi's Deli & Pizza,-74.33223829999999,40.6901401,22,5,1201000.0,Open,2011
Cliff's Dairy Maid,-74.66147420000001,40.8879483,8,20,1263000.0,Open,2011
Corner Of Second,-74.211922,40.092209600000004,10,2,518000.0,Open,2011
Country Fresh Food Mart,-75.0552967,39.865115700000004,29,2,443000.0,Open,2011
D & A Deli Grocery,-74.21050129999999,40.7354109,15,4,238000.0,Open,2011
D'Agostino Cannolifico USA,-74.9143234,39.910262200000005,13,2,473000.0,Open,2011
Dale's Market,-74.9614727,40.9822425,1,27,6320000.0,Open,2011
Deli Works,-74.51515490000001,41.0196301,1,2,110000.0,Open,2011
Dollar Plus,-75.0167102,39.4789083,8,2,478000.0,Open,2011
E Z Mart,-74.1809691,40.744794299999995,15,8,1941000.0,Open,2011
El Bodegon,-74.12970779999999,40.858846299999996,29,1,208000.0,Open,2011
Extra Supermarket,-74.2442767,40.731883,23,60,14558000.0,Open,2011
Flying Meatballs Market,-74.3982859,40.8149156,10,3,190000.0,Open,2011
Food Ingredient Solutions,-74.069365,40.855481899999994,31,19,4795000.0,Open,2011
Food Plus,-74.99023509999999,39.7294174,11,2,443000.0,Open,2011
Foster's Farm Market,-74.23861240000001,39.5661175,1,2,518000.0,Open,2011
Franklin Corner Deli,-74.708627,40.274968799999996,10,5,1173000.0,Open,2011
Friendly Auto Repair,-74.2370993,40.7753516,16,5,499000.0,Open,2011
Friendly Food Mart,-74.9648058,39.906051700000006,21,3,665000.0,Open,2011
Fuel One,-74.3891292,40.5097037,22,7,1603000.0,Open,2011
G M Goods,-74.12034859999999,40.81681470000001,23,2,505000.0,Open,2011
Garden State Dairy,-73.9594595,40.9727465,13,4,1010000.0,Open,2011
Gene's II Deli,-74.4818702,40.8188975,14,2,529000.0,Open,2011
Giovanni's Italian Amer Deli,-75.0155919,39.501713200000005,8,17,4057000.0,Open,2011
Glatt Express,-74.00538879999999,40.9015658,23,2,505000.0,Open,2011
Haars Market,-75.04455,39.466107799999996,8,13,3102000.0,Open,2011
Hill Pharma Inc,-74.3078443,40.8720092,7,2,486000.0,Open,2011
Hudson Middle Food,-74.2305423,40.7671383,16,3,728000.0,Open,2011
India Nepal Taste LLC,-74.4058047,40.8194029,10,3,793000.0,Open,2011
Isabelita Supermarket,-74.42057690000001,40.6170115,17,2,481000.0,Open,2011
Jersey Shore Deli,-74.0776524,40.290346899999996,10,3,687000.0,Open,2011
Juanito's Market,-74.0755874,40.3442347,12,3,687000.0,Open,2011
Jzyx1d Polish Mini Market,-74.26965279999999,40.6873571,29,1,241000.0,Open,2011
Kam Man Super Market LLC,-74.40113259999998,40.8175405,10,3,793000.0,Open,2011
Khushiara Mini Market,-74.1841052,40.915098,18,2,416000.0,Open,2011
Kings Super Markets,-74.4216934,40.861946,13,3,793000.0,Open,2011
Ko Fro Foods,-74.25317059999999,40.5980192,21,2,458000.0,Open,2011
Kollel Food Svc,-74.21480290000001,40.09429229999999,10,10,2586000.0,Open,2011
Kosher Konnection Inc,-74.1272075,40.845755,29,6,1246000.0,Open,2011
Krauser's Food Mart,-74.9595322,40.0361489,23,2,473000.0,Open,2011
LA Carniceria LA Unica Crncr,-74.482259,40.8023292,11,2,529000.0,Open,2011
LA Placita Supermarket,-74.01779429999999,40.780038399999995,55,2,461000.0,Open,2011
LA Sorpresa Meat Market,-74.4593225,39.349431700000004,3,5,1323000.0,Open,2011
Lacey Auto Care,-74.2122463,39.861650700000006,3,9,1562000.0,Open,2011
LC Supermarket,-74.481709,40.8022273,11,3,793000.0,Open,2011
Ledgewood Petroleum LLC,-74.04341509999999,40.730146600000005,52,7,73638000.0,Open,2011
Lee's Market,-74.2459077,40.769533100000004,11,3,728000.0,Open,2011
Livingston Mart,-74.3131182,40.8078059,12,3,728000.0,Open,2011
Local Links Market,-75.05838440000001,39.882693599999996,28,2,443000.0,Open,2011
Lycored,-74.23691590000001,40.769611299999994,16,2,199000.0,Open,2011
M & M Perottis Prepared Foods,-74.54856269999999,40.704747999999995,4,2,459000.0,Open,2011
M & N Market Inc,-74.0679693,40.7317229,39,2,461000.0,Open,2011
Big Savings Supermarket,-74.07528909999999,40.712148600000006,32,2,461000.0,Open,2011
Brazil Supermarket,-74.1722281,40.722706200000005,19,2,486000.0,Open,2011
Ed's Health Food,-74.8244853,40.845257700000005,4,3,374000.0,Open,2011
Nunez Grocery,-74.17130279999999,40.9112406,20,2,416000.0,Open,2011
Wawa Food Market,-75.0753963,39.936595700000005,28,25,5537000.0,Closed,2011
61st Street Deli,-74.0221858,40.7930826,55,2,109000.0,Open,2011
950 Meat & Grocery Inc,-74.1420185,40.9019753,18,2,416000.0,Open,2011
A & G Fine Foods,-74.4999549,40.5678746,14,10,3993000.0,Open,2011
A & P Big Star,-73.98190179999999,41.0145165,15,2,505000.0,Open,2011
A-Plus African Food Dstrbtn,-74.2221054,40.720220899999994,26,8,2939000.0,Open,2011
Anabellas House Mozz,-74.08559129999999,40.8309097,28,2,505000.0,Open,2011
Angelo's Italian Market Inc,-74.0380449,40.3244799,11,3,687000.0,Open,2011
Arctic Foods,-74.96987370000001,40.7601386,1,49,11470000.0,Open,2011
Arla Foods Inc USA,-74.58321629999999,40.6503059,4,15,2875000.0,Open,2011
Avdhut Corp,-74.1089127,40.997245899999996,17,2,505000.0,Open,2011
Banner Food Store,-74.6070795,40.5663537,8,1,230000.0,Open,2011
Best Glatt,-74.0252969,40.890351200000005,23,4,1010000.0,Open,2011
Botto's Market,-75.3099684,39.7484398,3,100,15852000.0,Open,2011
Bounce Safari,-74.1230325,41.0166548,16,2,505000.0,Open,2011
Brunswick Convenience Deli,-74.3733405,40.408079799999996,8,2,458000.0,Open,2011
Bud's Market,-75.4129977,39.5471193,0,3,999000.0,Open,2011
C Cavallo's Market,-74.1719564,40.8147685,26,2,486000.0,Open,2011
Casablanca Supermarket,-74.2008249,40.6586335,25,8,1921000.0,Open,2011
Chestnut,-75.01679279999999,39.4783241,8,4,520000.0,Open,2011
Citi Grocer,-74.20564279999999,40.6629788,25,60,14403000.0,Open,2011
Coffee Shop,-74.0409022,41.0164221,13,3,190000.0,Open,2011
Corner Stone,-75.0635418,39.7324134,9,12,2679000.0,Open,2011
Corrado's,-74.15161309999999,40.8880323,29,300,45085000.0,Open,2011
Cousin's Supermarket,-75.0885817,39.94354620000001,29,50,11073000.0,Open,2011
Dambrisi Foods,-73.98947659999999,40.2949816,7,7,10751000.0,Open,2011
Debos Drive Thru Corner Store,-74.41699840000001,40.619487299999996,17,2,481000.0,Open,2011
Di Pietro Foods Inc,-74.2857637,40.73583920000001,23,3,728000.0,Open,2011
Dodge's Market,-75.1704301,39.595479499999996,0,6,1998000.0,Open,2011
E & S Foods,-74.4398309,40.8216886,15,6,11459000.0,Open,2011
E & T Food Market,-74.6551847,40.9423811,3,2,497000.0,Open,2011
Eagle Supermarket,-74.2117419,40.661626500000004,25,28,6722000.0,Open,2011
East Coast Catering & Cafe,-74.1178253,40.6751205,18,8,1844000.0,Open,2011
Efe's Halal Food Market,-74.95891209999999,40.012620299999995,23,2,473000.0,Open,2011
El Agila Dorada,-74.1080982,40.675573299999996,18,10,542000.0,Open,2011
El Aguadillano Deli & Grocery,-74.7624404,40.2234117,6,4,938000.0,Open,2011
El Pueblito Market,-74.989766,39.822845799999996,16,2,443000.0,Open,2011
El Tepeyac Grocery,-74.12346840000001,40.8659076,29,2,416000.0,Open,2011
Eli Auto Svc Ctr,-74.02774009999999,40.890683700000004,23,3,579000.0,Open,2011
Elite Ingredients,-74.1435165,40.8912285,29,5,1038000.0,Open,2011
Essex House,-74.27739790000001,40.7705052,11,15,893000.0,Open,2011
Express Mart Smoke Shop,-74.44348640000001,40.4951104,20,2,458000.0,Open,2011
Extra Supermarket,-74.2233743,40.76046229999999,15,23,5581000.0,Open,2011
Fat Louie's,-75.1451663,39.8439326,17,8,482000.0,Open,2011
Florham Park Exxon,-74.3890778,40.7876571,16,3,3777000.0,Open,2011
Gaiss Market,-74.9335273,39.027500700000004,5,12,4898000.0,Open,2011
Globe Packaging Co,-74.06758190000001,40.8193109,29,10,7386000.0,Open,2011
Glory's Deli & Grocery,-74.3460493,40.1482499,6,23,4101000.0,Open,2011
Grassroots Natural Market,-74.4762377,40.8930221,13,25,2756000.0,Open,2011
Green Acres Health Food Store,-74.4421375,40.5534748,17,8,1832000.0,Open,2011
Greenwich Deli LLC,-75.14532559999999,40.68882670000001,3,1,235000.0,Open,2011
Gromart,-74.160388,40.784720799999995,26,2,129000.0,Open,2011
International Meat Market,-74.1561774,40.9335959,19,2,349000.0,Open,2011
Intra,-74.40284399999999,40.629116499999995,15,2,481000.0,Open,2011
Jackson Service Station,-74.274487,40.1291515,6,4,3779000.0,Open,2011
Jazz Convenience,-74.0317106,40.198716600000004,8,2,458000.0,Open,2011
John's Friendly Market,-75.05951759999999,39.8814091,28,7,1551000.0,Open,2011
Kenny's Pit Stop,-74.2875973,40.946428999999995,6,3,190000.0,Open,2011
King Pao Grocery,-74.2669753,40.9150084,12,2,416000.0,Open,2011
Kings Super Markets Stores,-74.2769395,40.731423,23,51,12374000.0,Open,2011
L J Zucca Inc,-75.04633199999999,39.475788,8,100,23861000.0,Open,2011
LA Nany Mini Market,-74.1873459,40.9197287,17,2,416000.0,Open,2011
LA Parada Chilanga Mexican,-74.2137714,39.9412366,6,2,518000.0,Open,2011
LA Placita,-74.27700829999999,40.2597929,10,1,57000.0,Open,2011
Landing Market,-74.6559166,40.9101673,7,4,794000.0,Open,2011
Lapp's Dutch Market,-75.4615551,39.72903839999999,3,15,4994000.0,Open,2011
Leblon Foods Inc,-74.1397598,40.760692600000006,20,2,461000.0,Open,2011
Linda's Grocery & Deli,-75.06657879999999,39.958116700000005,27,2,443000.0,Open,2011
Little Ferry Gas Corp,-74.03755749999999,40.8533994,34,5,6489000.0,Open,2011
Livoti Old World Market,-74.1105071,40.3990029,11,70,16029000.0,Open,2011
Livotis Old World Market,-74.3050838,40.3485321,11,3,687000.0,Open,2011
Los Pitolos Supermarket,-74.1746166,40.719314600000004,22,3,728000.0,Open,2011
Luisaac Savings Store,-74.20214250000001,40.913681,17,2,416000.0,Open,2011
Luna's Grocery,-74.29682779999999,41.0288021,7,1,208000.0,Open,2011
M & P Biancamano,-74.02718270000001,40.7506819,54,2,461000.0,Open,2011
Kings Super Mar,-69.9538787,41.6786711,8,6,379000.0,Open,2011
24 7 EZ Check,-74.21786379999999,40.7564652,15,2,486000.0,Open,2011
AC Convenience Store,-74.4581107,39.349601799999995,3,2,529000.0,Open,2011
Addison Shop,-74.1123653,40.82440689999999,28,1,253000.0,Open,2011
African Market,-74.47426870000001,40.4911405,10,2,459000.0,Open,2011
Ak Market Store,-74.1485397,40.8910292,24,35,7265000.0,Open,2011
Albertson Village,-75.0531103,39.9107081,21,2,377000.0,Open,2011
Alex's Market,-74.76106899999999,39.0534263,2,6,2449000.0,Open,2011
Ali Grocery,-74.43127,39.361146000000005,3,5,1323000.0,Open,2011
Ameribean Grocery & Deli,-74.19523249999999,40.7647496,18,4,238000.0,Open,2011
American Food Paper & Poultry,-75.05865059999999,39.973526799999995,27,6,668000.0,Open,2011
Anais Grocery Inc,-74.0669897,40.7350031,39,2,461000.0,Open,2011
Angelo's Market,-74.1405117,40.0518782,6,5,1293000.0,Open,2011
Arctic General Store,-74.4414453,39.3584286,3,2,529000.0,Open,2011
Asian Food Market,-74.25112920000001,40.3036442,5,6,1374000.0,Open,2011
Atlantic Boston Chicken,-74.4370715,39.3663146,3,2,529000.0,Open,2011
Aunt Charlotte's Candies-Gifts,-75.0493872,39.950609,28,30,2422000.0,Open,2011
Aunt Debbie's Health Food Str,-74.5127873,39.4022308,7,1,105000.0,Open,2011
AWAN Convenience Store,-74.4554707,39.3514723,3,2,1772000.0,Open,2011
B E Princess Inc,-74.0590622,40.8237354,29,20,5047000.0,Open,2011
Bagliani's Market,-74.8085363,39.6318766,2,23,6082000.0,Open,2011
Bags & Accessories,-74.4239064,39.3573223,3,3,1438000.0,Open,2011
Baklabox,-74.093461,40.838322999999995,29,2,505000.0,Open,2011
Banzal Bazar Discount,-74.4288435,39.3614617,3,2,346000.0,Open,2011
Barefoot Market,-74.5678417,39.2869709,4,2,817000.0,Open,2011
Bellino's Market,-74.4631871,39.488200799999994,4,2,529000.0,Open,2011
Bergenline News,-74.0086093,40.7988055,55,2,461000.0,Open,2011
Best Food In Town Chinese,-75.01835329999999,39.485530100000005,8,3,143000.0,Open,2011
Bienaventurado Deli Grocery,-74.19435849999999,40.907585499999996,20,2,416000.0,Open,2011
Bill & Eileen's Market,-75.1690822,39.8628645,16,10,1586000.0,Open,2011
Bill Young's Svc Ctr,-74.5819578,40.901467499999995,8,3,3777000.0,Open,2011
Blue Mirror Rstrnt & Lounge,-74.1888902,40.7231093,20,4,238000.0,Open,2011
Blue Ribbon Grocery,-74.0372436,40.742696200000005,54,1,231000.0,Open,2011
Boom Supermarkets,-74.4541656,39.352105200000004,3,30,7933000.0,Open,2011
Boonton Smoke & Deli,-74.40868409999999,40.90371629999999,5,3,793000.0,Open,2011
Boyar's Market,-74.58314759999999,39.2740278,4,10,4082000.0,Open,2011
Brands & Trends,-74.04942779999999,40.8558672,34,2,505000.0,Open,2011
Brighton Grocery & Produce,-74.4475021,39.354617700000006,3,2,529000.0,Open,2011
Brothers Grocery & Deli,-74.2144985,40.092433500000006,10,2,518000.0,Open,2011
Camden Grocery Store,-75.1184343,39.945715,28,2,443000.0,Open,2011
Cape May Fish Market,-74.9229552,38.93237020000001,5,2,817000.0,Open,2011
Carniceria Latina,-74.01823809999999,40.7831109,59,2,461000.0,Open,2011
Cedar Food Market,-74.41421,39.365536,3,2,529000.0,Open,2011
Cedar Food Market,-74.4261592,39.3650314,3,4,1058000.0,Open,2011
Cedar Food Market,-74.43160970000001,39.3677535,3,1,265000.0,Open,2011
Cedar Food Market,-74.52678259999999,39.3863503,7,2,529000.0,Open,2011
Cedar Food Market Iv,-74.43477,39.3631628,3,5,1323000.0,Open,2011
Cedar General Store,-74.43401429999999,39.3628025,3,2,529000.0,Open,2011
Cedar Market,-74.529678,39.3832499,7,4,1058000.0,Open,2011
Cedar Markets,-74.0282221,40.8909253,23,2,505000.0,Open,2011
Cento Fine Foods,-75.2068821,39.8364501,13,100,46745000.0,Open,2011
Chavez Grocery,-74.152737,40.910126299999995,18,1,208000.0,Open,2011
Chikeeza LLC,-74.4290906,39.36555070000001,3,2,529000.0,Open,2011
City Grocery,-74.442334,39.354239,3,3,794000.0,Open,2011
City Supermarket 2,-74.2495704,40.735995,22,2,486000.0,Open,2011
Country Farm Convenience,-75.0852013,39.881080299999994,27,1,222000.0,Open,2011
Country Market Farms,-74.4504812,39.354621200000004,3,3,314000.0,Open,2011
Crestwood Bar & Food Store,-74.3905896,40.44152879999999,12,4,1235000.0,Open,2011
Ct Baked Potato LLC,-74.3357727,40.547482200000005,19,2,458000.0,Open,2011
Cumberland Country Store Inc,-74.93007940000001,39.3634731,4,2,1141000.0,Open,2011
D'Angelo Italian Market,-74.6591837,40.3510684,7,5,1173000.0,Open,2011
Dale's Market,-74.7814657,41.1568014,0,23,1141000.0,Open,2011
Deshi Bazaar & Produce,-74.4411591,39.3564218,3,2,529000.0,Open,2011
Ding Food Market,-74.1583836,40.7461203,16,2,461000.0,Open,2011
Dollar King Plus,-74.0453658,40.7584712,55,1,164000.0,Open,2011
Eagle Mart News & Tobacco,-74.6169395,39.36255429999999,9,2,501000.0,Open,2011
East Coast Foods,-74.2825187,40.644698,27,20,4801000.0,Open,2011
East State Deli,-74.7595857,40.2207032,6,3,704000.0,Open,2011
East West Asian Market,-74.1821524,40.7977978,25,2,486000.0,Open,2011
El Nuevo Bodegon,-74.185275,40.918079999999996,17,2,416000.0,Open,2011
El Paso's Grocery,-74.9241882,38.9322934,5,1,409000.0,Open,2011
Eleven Food Stores,-74.0006787,40.895337700000006,23,2,505000.0,Open,2011
Emmanuel Deli Grocery,-74.0536346,40.73424179999999,39,2,461000.0,Open,2011
Extra Supermarket,-74.1949115,40.7246492,20,37,8977000.0,Open,2011
Fairview Liquors,-74.00010479999999,40.81089420000001,55,2,505000.0,Open,2011
Family Grocery & Deli,-74.0299517,40.7618893,55,2,109000.0,Open,2011
Famosa Familia Leon LLC,-74.011444,40.795880700000005,59,2,461000.0,Open,2011
Fernanito Super Market,-75.10532099999999,39.905738,29,2,443000.0,Open,2011
Fiesta Supermarket,-74.01858229999999,40.785570799999995,59,10,2304000.0,Open,2011
Five Family Grocery,-74.03297990000002,40.767219299999994,55,5,1152000.0,Open,2011
Foley's Shop N Bag,-74.6963777,40.2070158,14,40,9379000.0,Open,2011
Food 4 Less,-74.4328327,39.359917100000004,3,2,529000.0,Open,2011
Food Market Cedar,-74.5183776,39.395962299999994,7,3,794000.0,Open,2011
Food Showcase,-74.118261,40.9394447,20,4,1010000.0,Open,2011
Food Specialties Trading,-74.2372343,40.901002399999996,18,2,416000.0,Open,2011
Franco's Market,-75.21565759999999,39.4970469,2,6,1432000.0,Open,2011
Frank's,-75.0846149,39.9607291,29,4,886000.0,Open,2011
Fremont Stop & Shop,-75.07944559999999,39.9433002,29,3,665000.0,Open,2011
Fresh & Fair Market,-74.1215153,40.900445700000006,25,2,505000.0,Open,2011
Fusco's Market,-74.06679399999999,41.023559000000006,13,1,253000.0,Open,2011
Garden State Super Mart,-74.44788,39.3543825,3,2,529000.0,Open,2011
Geoes Grocery,-74.1539822,40.7582321,20,2,461000.0,Open,2011
Glass Gardens Inc,-74.0814603,40.915063399999994,24,2,505000.0,Open,2011
Grand & Essex Market,-74.00145909999999,40.9153506,20,2,505000.0,Open,2011
Grand Liquor & Deli Inc,-73.9762306,40.8893054,22,1,253000.0,Open,2011
Green Valley Gyro Grill,-74.24298,40.0390653,8,3,776000.0,Open,2011
Greens & Grains,-74.492122,39.333634,4,5,524000.0,Open,2011
Gusto Food,-74.1497782,40.9098068,18,18,30794000.0,Open,2011
Halters Farm Market,-75.49293259999999,39.64800379999999,3,26,8656000.0,Open,2011
Healthy Italia,-74.41551650000001,40.75885460000001,14,3,793000.0,Open,2011
Herbal Tea House,-74.06897070000001,40.7154468,32,1,231000.0,Open,2011
Home Made Curries,-74.5208994,40.41936079999999,8,6,358000.0,Open,2011
Hometown Food Mart,-74.1253265,39.957978499999996,8,1,259000.0,Open,2011
Huber's Automotive,-74.29873559999999,40.998554,6,2,2518000.0,Open,2011
Ice Corp,-74.3429157,40.6414314,26,2,481000.0,Open,2011
J C Kosher Supermarket Inc,-74.0837047,40.707067200000004,21,1,231000.0,Open,2011
J Wellness Shop,-74.0288417,40.9438802,19,5,1262000.0,Open,2011
Jaquez Deli Market,-74.7729542,40.2246672,6,3,704000.0,Open,2011
Joe Food Market,-74.43540420000001,39.366221,3,5,5270000.0,Open,2011
Kam Man Food Inc,-74.3775327,40.515086700000005,22,40,9157000.0,Open,2011
Kennie's Food Store,-74.11242370000001,40.8917027,25,2,505000.0,Open,2011
Khan Market,-74.3523782,40.8584178,13,4,1057000.0,Open,2011
Khushbu Convenience LLC,-74.2291174,40.70162379999999,27,2,481000.0,Open,2011
Kikos Supermarket,-73.9943432,40.8173831,55,50,12617000.0,Open,2011
Kings Super Mar,-74.589197,40.7831334,3,2,283000.0,Open,2011
Kk Grocery,-74.4611901,39.3485589,3,1,265000.0,Open,2011
Knight's Deli,-74.45587440000001,40.500411799999995,20,1,229000.0,Open,2011
Krauser's,-74.2821671,40.993797799999996,9,3,623000.0,Open,2011
Kum Yang USA Inc,-73.9965698,40.8262766,48,2,2284000.0,Open,2011
LA Bottega Dei Sapori,-74.232858,40.660107399999994,28,4,238000.0,Open,2011
LA Canasta,-74.521564,39.4052527,7,3,794000.0,Open,2011
LA Cosecha II LLC,-74.4409072,39.35719829999999,3,2,529000.0,Open,2011
LA Cosecha III,-74.52486,39.3886201,7,30,7933000.0,Open,2011
LA Mexicanita II LLC,-74.1566233,40.75318060000001,20,2,461000.0,Open,2011
LA Placita Poblana,-75.0322281,39.9257414,25,2,443000.0,Open,2011
LA Primera Grocery,-74.076042,40.714308,32,2,461000.0,Open,2011
LA Valentina,-73.9863546,40.30441870000001,7,2,458000.0,Open,2011
Laticica,-74.4429681,39.3578751,3,1,265000.0,Open,2011
Latino Americano Super Market,-74.556728,40.883826899999995,10,3,793000.0,Open,2011
Latona's Specialty Foods LLC,-74.0967189,40.8756644,30,2,416000.0,Open,2011
Laurel Mini-Market,-75.23257059999999,39.4323658,2,3,716000.0,Open,2011
Lews Farm Market LLC,-74.99253990000001,39.970909999999996,24,4,945000.0,Open,2011
Little Grocery Uptown,-74.0268202,40.751723,54,2,461000.0,Open,2011
Long Beach Carefree RV,-74.31452790000002,39.7604921,6,19,1336000.0,Open,2011
Lopatcong Quickmart,-75.16924449999999,40.699862200000005,5,3,703000.0,Open,2011
Los Compadres Grocers,-74.1254412,40.868613,29,2,416000.0,Open,2011
Los Montones Meat Market LLC,-74.0767576,40.7129739,32,2,461000.0,Open,2011
Luis Records,-75.0941248,39.95551879999999,29,5,1108000.0,Open,2011
Bovine Burgers Inc,-74.41489320000001,40.2829312,2,2,458000.0,Open,2011
Ceriello Market Place,-74.7768038,39.860578000000004,3,4,214000.0,Open,2011
D & T Mini Market,-74.1637918,40.90844370000001,20,5,273000.0,Open,2011
Mcfarlan's Market,-75.049491,39.963676899999996,27,8,11865000.0,Open,2011
T R C Food Court Corp,-74.0986462,40.79755720000001,23,2,505000.0,Open,2011
Tea Time Foods Inc,-74.0820929,40.7641135,43,2,461000.0,Open,2011
123 Convenience Corp,-74.22919820000001,40.399961299999994,12,2,95000.0,Open,2011
501 Food Market Inc,-74.412853,40.6218791,17,2,481000.0,Open,2011
A & G Italian Fine Foods,-74.0380449,40.3244799,11,12,2748000.0,Open,2011
A & S Italian Food Store,-74.4852123,40.668230799999996,10,6,379000.0,Open,2011
A & S Italian Pork Store,-74.20706440000001,40.883979100000005,19,3,164000.0,Open,2011
A & T Auto Svc,-74.3041568,40.9231549,4,2,2518000.0,Open,2011
A M Farm Market,-74.52895699999999,40.263108100000004,4,3,704000.0,Open,2011
A One Food Store,-74.470361,40.443503,11,1,229000.0,Open,2011
Abarrotes Los Puentes,-75.2264838,39.4345899,2,2,478000.0,Open,2011
Abbruzzi & Giunta's Italian,-74.8841087,39.9702646,15,10,2363000.0,Open,2011
Acne,-74.5769925,39.280545200000006,4,2,817000.0,Open,2011
Aghaty Market,-74.06934609999999,40.7249653,39,2,461000.0,Open,2011
Aiellos Market & Catering,-74.3241727,40.40378270000001,9,25,1489000.0,Open,2011
Al Fellah Halal,-74.195417,40.764407,18,1,486000.0,Open,2011
Aliseos Italian Market,-74.20283470000001,39.780260999999996,4,2,518000.0,Open,2011
Amer-Fil Foodmart,-74.4879907,40.5164765,10,3,3394000.0,Open,2011
Ammar Stores LLC,-74.8091,40.1228,10,4,945000.0,Open,2011
Angel Food Market,-74.1913801,40.6579279,24,1,241000.0,Open,2011
Appian Way Catering & Rstrnt,-74.2500747,40.7612909,16,6,357000.0,Open,2011
Argyle Marketplace LLC,-74.29974399999999,40.770736799999995,12,4,238000.0,Open,2011
Artista Salumeria,-72.4267605,41.3692973,4,3,793000.0,Open,2011
Asian Food Markets-Piscataway,-74.4378615,40.5536982,17,60,13735000.0,Open,2011
Aspen Market,-74.0306254,40.739729600000004,54,50,11520000.0,Open,2011
Astir IT Solutions,-74.30192070000001,40.5623372,21,2,458000.0,Open,2011
Autumn Harvest Health Foods,-74.40073670000001,40.6450505,17,2,314000.0,Open,2011
Azteca International LLC,-75.2347755,39.4281869,2,2,478000.0,Open,2011
Bakers Shoprite,-74.1632643,40.4128505,12,3,687000.0,Open,2011
Baraka Halal Grocery,-74.1594342,40.893927000000005,24,4,831000.0,Open,2011
Barangay Union Grill-Food Mart,-74.2681378,40.69703079999999,29,2,481000.0,Open,2011
Bark N Bag LLC,-74.7346213,40.232298799999995,8,3,704000.0,Open,2011
Barth's Pork Store,-74.4061651,40.704562200000005,14,20,4801000.0,Open,2011
Basil Bandwagon,-74.9056684,40.6375319,1,10,17878000.0,Open,2011
Basira Food Market,-74.1899125,40.715641399999996,22,2,486000.0,Open,2011
Basking In Nutrition,-74.5494178,40.7057985,4,2,274000.0,Open,2011
Bella Grocery,-74.14782070000001,40.8736708,29,2,416000.0,Open,2011
Bellemead Food Mart,-74.6557208,40.4777901,3,2,459000.0,Open,2011
Bera Centro Supermarket,-74.20112040000001,40.6761888,25,3,721000.0,Open,2011
Bernardsville Food Store,-74.5634689,40.718938200000004,3,2,459000.0,Open,2011
Bhp Convenience Store LLC,-75.1009449,39.9167761,26,2,443000.0,Open,2011
Bhumi Construction Inc,-74.17358459999998,40.737308899999995,17,5,1958000.0,Open,2011
Bhuta Inc,-75.0729309,39.9174096,21,3,665000.0,Open,2011
Big Lot,-74.5163452,39.39893,7,25,3981000.0,Open,2011
Bon Appetit,-74.6518455,40.364492799999994,7,20,1658000.0,Open,2011
Bonterra Market,-74.56088299999999,39.3922005,9,15,1570000.0,Open,2011
Bonzao Supermarket,-74.1576682,40.729939,19,2,486000.0,Open,2011
Brian's Mini Market,-74.18961440000001,40.9185742,17,2,416000.0,Open,2011
Brunswick Corner,-74.4496546,40.4726359,11,2,458000.0,Open,2011
Bshp Marketing LLC,-75.2649278,39.44056679999999,2,3,1711000.0,Open,2011
BSP Enterprises Inc,-74.6625949,40.934520299999996,3,15,3564000.0,Open,2011
Bud's Market,-74.7535297,39.062637200000005,2,2,817000.0,Open,2011
Burrini's Old World Market,-74.5745671,40.825916799999995,9,39,10302000.0,Open,2011
C & C Mini Market,-74.48247109999998,40.8051804,11,2,529000.0,Open,2011
Cabidan Grocery,-74.1516741,40.934234000000004,19,2,416000.0,Open,2011
Cape May Organic Market,-74.92793309999999,38.935019399999995,5,2,817000.0,Open,2011
Cape May Peanut Butter Co,-74.9216159,38.932601,5,2,817000.0,Open,2011
Caracas Grocery,-74.0324007,40.7624033,55,1,231000.0,Open,2011
Caribe Super Market,-74.1796305,40.7225639,22,4,971000.0,Open,2011
Casa Reyes Mexican Products,-75.2282615,39.435334600000004,2,2,95000.0,Open,2011
Cedar Food Market,-74.4279684,39.3694111,3,5,1323000.0,Open,2011
Chiquita Deli Grocery,-74.03596879999999,40.7723248,55,2,461000.0,Open,2011
Cianci Grocery,-74.1761984,40.91744620000001,20,2,416000.0,Open,2011
Cinco De Mayo,-74.2666555,40.5105956,12,4,239000.0,Open,2011
Circle P Food Store,-73.4107116,41.57666879999999,20,1,253000.0,Open,2011
Clc Gourmet Foods Inc,-74.0960765,40.8325231,28,2,505000.0,Open,2011
Clinton News,-74.1701905,40.7358287,17,2,486000.0,Open,2011
Coastal Mini Mart,-74.164778,39.8805533,6,2,518000.0,Open,2011
Collings Lake Food Mart,-74.8799205,39.6035785,5,2,529000.0,Open,2011
Community Mini Market Inc,-74.4464831,40.478947600000005,20,2,458000.0,Open,2011
Compared Foods,-74.4698728,40.4931776,10,2,459000.0,Open,2011
Cooper Convenience LLC,-75.098299,39.8192624,17,3,476000.0,Open,2011
Corner Store,-74.2199044,40.751748799999994,15,1,243000.0,Open,2011
Cosmo's Mini Mart,-74.1742497,40.9173055,18,2,416000.0,Open,2011
Country Farm,-74.7627973,40.005199299999994,6,7,1654000.0,Open,2011
Country Farms,-74.0622785,40.1357315,10,2,458000.0,Open,2011
Criollo's Latin Cuisine,-75.05887879999999,39.397692,4,5,238000.0,Open,2011
Cugino's Italian Specialties,-74.797837,40.32783,3,5,302000.0,Open,2011
Daisey Food Market,-74.44461690000001,40.4874763,20,5,1145000.0,Open,2011
Dd West Indian,-74.19410359999999,40.7824063,25,2,486000.0,Open,2011
De Los Santos Auto Sales,-75.22493399999999,39.426865299999996,2,10,9697000.0,Open,2011
Dean's Natural Food Market,-74.0637012,40.335057299999995,11,15,3435000.0,Open,2011
Dean's Natural Market,-74.5773587,40.6443941,4,20,2731000.0,Open,2011
Deli Delight,-74.3623958,40.5417609,23,4,239000.0,Open,2011
Delight Deli & Grocery,-74.040724,40.737508,54,3,692000.0,Open,2011
Deterding's Family Market Inc,-74.98014599999999,39.8200561,16,50,11073000.0,Open,2011
Dollar Zone Of Manville,-74.5843333,40.5473277,9,9,2063000.0,Open,2011
Dover Plaza Market,-74.5515877,40.887987100000004,10,2,529000.0,Open,2011
E & D's Grocery,-74.1580007,40.908814899999996,20,2,416000.0,Open,2011
E Z Pantry,-74.9275449,39.8107422,7,8,1772000.0,Open,2011
Eagle Supermarket,-74.2852946,40.6131605,32,2,481000.0,Open,2011
Edwin's Supermarket,-74.2070889,40.665946399999996,25,3,721000.0,Open,2011
El Cerrito,-74.1911608,39.9412643,7,1,259000.0,Open,2011
El Chapulin LLC,-75.2324322,39.4292807,2,2,478000.0,Open,2011
El Corocito Corp Barrio,-74.18429420000001,40.743889,15,2,486000.0,Open,2011
El Manantial,-75.1539224,39.8380346,17,1,61000.0,Open,2011
El Michoacano,-74.95190699999999,39.5165274,8,1,48000.0,Open,2011
El Paisano Inc,-75.2273141,39.4375253,2,3,716000.0,Open,2011
El Primo Mini Market LLC,-74.2315283,40.7886071,11,2,486000.0,Open,2011
El Surtido Ecuatoriano,-74.24614720000001,40.7241116,26,2,486000.0,Open,2011
El Tropical Meat & Groceries,-74.4068522,40.50112539999999,22,3,2970000.0,Open,2011
Emanuel's Market,-75.22273059999999,39.415617700000006,2,3,716000.0,Open,2011
Emporium 112 Super,-74.1525679,40.7244771,19,4,971000.0,Open,2011
Enzo's Market,-73.98439029999999,40.8498271,40,2,505000.0,Open,2011
Espinosa Market,-74.26390040000001,40.5222398,12,2,458000.0,Open,2011
Express Deli & Grocery LLC,-74.031094,40.2207751,8,3,687000.0,Open,2011
Fairchilds,-74.2942666,40.8204893,12,20,4853000.0,Open,2011
Family Grocery Fortuna,-74.24475629999999,40.719595500000004,26,2,486000.0,Open,2011
Fast Break Basketball Camp LLC,-74.3672468,41.114533200000004,1,2,416000.0,Open,2011
Fernandez Food Market,-74.15925899999999,40.919335100000005,20,4,219000.0,Open,2011
Fernandez Supermarket-Trenton,-74.747099,40.209027,8,3,704000.0,Open,2011
Fieni's Ristorante,-75.0045459,39.8448393,18,10,518000.0,Open,2011
Fior D Italia,-74.28209659999999,40.7110174,29,4,238000.0,Open,2011
Five Star Deli & Grill,-74.5539948,39.954265899999996,1,5,1182000.0,Open,2011
Flomo,-74.057735,40.836498999999996,35,15,17126000.0,Open,2011
Food Ex,-74.2083484,40.095296999999995,10,2,518000.0,Open,2011
Food Express,-74.3480022,40.712086600000006,17,2,481000.0,Open,2011
Franklin Riggins,-75.2393147,39.4281904,2,2,478000.0,Open,2011
Fresca Gourmet,-74.0338739,40.726427799999996,52,3,692000.0,Open,2011
Fresh Bui,-74.3483125,40.6512751,26,5,1201000.0,Open,2011
Fresh Farm Market,-76.5952587,40.3113269,33,2,473000.0,Open,2011
Gauri Grocery Inc,-74.43300079999999,40.6239756,17,2,459000.0,Open,2011
Gene's III,-74.3828014,40.8830685,8,2,529000.0,Open,2011
General Store,-74.561913,41.089145,4,3,745000.0,Open,2011
Gerry Terry's Italian Market,-74.85000490000002,39.0465434,2,3,0.0,Open,2011
Giant Farmers Market,-74.2398962,41.0243628,9,2,505000.0,Open,2011
Giant Farmers Market,-74.12151850000001,41.009561100000006,16,2,505000.0,Open,2011
Giant Mini Mart,-74.743651,40.1993733,14,3,704000.0,Open,2011
Glutenfree Grocer,-74.9995247,39.6954816,5,2,318000.0,Open,2011
Gokul Indian Supermarket,-74.50691440000001,39.425948999999996,7,4,1058000.0,Open,2011
Gold Valley Supermarket,-74.3108129,40.71019570000001,22,2,481000.0,Open,2011
Grasso Girls Farm Market,-75.223854,39.752768700000004,1,12,1903000.0,Open,2011
Great Foods Market,-74.0319631,40.947977200000004,19,5,316000.0,Open,2011
Green Nectar Juicery,-74.3082233,40.7234246,18,2,486000.0,Open,2011
Gsfm Corp,-74.6879105,40.224344099999996,13,3,704000.0,Open,2011
H & M Food Market,-74.15725529999999,40.8873993,29,2,416000.0,Open,2011
Hackettstown Fod LLC,-74.82272590000001,40.8356135,4,4,937000.0,Open,2011
Haledon CITGO,-74.1804028,40.9361362,17,3,361000.0,Open,2011
Hawthorne Convenience Store,-74.15524029999999,40.9522349,18,2,416000.0,Open,2011
Healthway Natural Food Ctr,-73.9659684,40.9271253,19,2,239000.0,Open,2011
Hess,-74.6237054,40.579730100000006,8,5,1146000.0,Open,2011
Hind Hing,-74.2371558,40.715144,26,2,486000.0,Open,2011
Honeytree,-74.55475,39.3855958,10,5,524000.0,Open,2011
I & K Convenience Store & Deli,-74.3141448,40.4500774,5,1,229000.0,Open,2011
I Castillo Grocery Corp,-74.042661,40.749713899999996,49,2,461000.0,Open,2011
Ilayda Market Place,-73.98536740000002,40.830121500000004,56,5,316000.0,Open,2011
